{"D00103700100105010": {"name": "青岛胶州湾隧道收费站", "lat": 35.996414, "lng": 120.289953}, "G00023700400101010": {"name": "港沟收费站入口广场", "lat": 36.62974204584896, "lng": 117.17613010900588}, "G00023700400102010": {"name": "港沟收费站出口广场", "lat": 36.62987423093783, "lng": 117.1762862757815}, "G00023700400201010": {"name": "蟠龙收费站入口广场", "lat": 36.62811439574422, "lng": 117.22367914858803}, "G00023700400202010": {"name": "蟠龙收费站出口广场", "lat": 36.62805221931177, "lng": 117.22367552471712}, "G00023700400301010": {"name": "彩石收费站入口广场", "lat": 36.6156650763778, "lng": 117.32952297685014}, "G00023700400302010": {"name": "彩石收费站出口广场", "lat": 36.61578399386588, "lng": 117.3295217568371}, "G00023700400401010": {"name": "曹范收费站入口广场", "lat": 36.61120748252583, "lng": 117.3995727923592}, "G00023700400402010": {"name": "曹范收费站出口广场", "lat": 36.61109480025601, "lng": 117.39954232551692}, "G00023700400501010": {"name": "埠村收费站入口广场", "lat": 36.60121637564319, "lng": 117.47712283095204}, "G00023700400502010": {"name": "埠村收费站出口广场", "lat": 36.60136082214325, "lng": 117.4771276831802}, "G00023700400601010": {"name": "雪野收费站入口广场", "lat": 36.45423295879401, "lng": 117.53071804741762}, "G00023700400602010": {"name": "雪野收费站出口广场", "lat": 36.45408001633565, "lng": 117.5309898984694}, "G00023700400701010": {"name": "莱芜北收费站入口广场", "lat": 36.302350489700686, "lng": 117.65003295000103}, "G00023700400702010": {"name": "莱芜北收费站出口广场", "lat": 36.30246641674343, "lng": 117.64984626389698}, "G00023700400801010": {"name": "莱芜高新区收费站入口广场", "lat": 36.253622798949394, "lng": 117.72466826193872}, "G00023700400802010": {"name": "莱芜高新区收费站出口广场", "lat": 36.253728997855134, "lng": 117.72446232086791}, "G00023700500101010": {"name": "蒙阴收费站入口广场", "lat": 35.68893017634501, "lng": 117.93513380269091}, "G00023700500102010": {"name": "蒙阴收费站出口广场", "lat": 35.68884341749249, "lng": 117.93530850417584}, "G00023700500201010": {"name": "孟良崮收费站入口广场", "lat": 35.5380846617677, "lng": 118.15463846360724}, "G00023700500202010": {"name": "孟良崮收费站出口广场", "lat": 35.537959694484755, "lng": 118.15463812047358}, "G00023700500301010": {"name": "青驼收费站入口广场", "lat": 35.41124462500407, "lng": 118.26002295350467}, "G00023700500302010": {"name": "青驼收费站出口广场", "lat": 35.41099202678882, "lng": 118.26007714423147}, "G00023700500401010": {"name": "临沂收费站入口广场", "lat": 35.13761395185682, "lng": 118.25509310437788}, "G00023700500402010": {"name": "临沂收费站出口广场", "lat": 35.13750506956262, "lng": 118.25481201745131}, "G00023700500501010": {"name": "临沂北收费站下行入口广场", "lat": 35.271120738411, "lng": 118.25475394362827}, "G00023700500501020": {"name": "临沂北收费站上行入口广场", "lat": 35.27412661149104, "lng": 118.25927661565616}, "G00023700500502010": {"name": "临沂北收费站下行出口广场", "lat": 35.2711183713308, "lng": 118.25491959822249}, "G00023700500502020": {"name": "临沂北收费站上行出口广场", "lat": 35.2740206606328, "lng": 118.25925537648614}, "G00023700500601010": {"name": "蒙阴西入口收费广场", "lat": 35.735398, "lng": 117.854807}, "G00023700500602010": {"name": "蒙阴西出口收费广场", "lat": 35.735398, "lng": 117.854807}, "G00023700500701010": {"name": "临沂枣园入口收费广场", "lat": 35.212349, "lng": 118.256612}, "G00023700500702010": {"name": "临沂枣园出口收费广场", "lat": 35.212349, "lng": 118.256612}, "G00023700600101010": {"name": "临沂南收费站入口广场", "lat": 35.02178619369049, "lng": 118.2242851316644}, "G00023700600102010": {"name": "临沂南收费站出口广场", "lat": 35.021707322810215, "lng": 118.22425043305492}, "G00023700600201010": {"name": "兰陵收费站入口广场", "lat": 34.86194790729596, "lng": 118.20757653721756}, "G00023700600202010": {"name": "兰陵收费站出口广场", "lat": 34.86197543544202, "lng": 118.20739093842415}, "G00023700600301010": {"name": "郯城收费站入口广场", "lat": 34.64254031555403, "lng": 118.24273072943129}, "G00023700600302010": {"name": "郯城收费站出口广场", "lat": 34.6425209580957, "lng": 118.24301717769168}, "G00023700600401010": {"name": "红花埠收费站入口广场", "lat": 34.44279654709091, "lng": 118.33913889760436}, "G00023700600402010": {"name": "红花埠收费站出口广场", "lat": 34.44256430807046, "lng": 118.33900350212733}, "G00023700600501010": {"name": "鲁苏省界收费站入口广场", "lat": 34.425495, "lng": 118.377119}, "G00023700600502010": {"name": "鲁苏省界收费站出口广场", "lat": 34.425495, "lng": 118.377119}, "G00023700600601010": {"name": "临沂商城入口收费广场", "lat": 35.064425, "lng": 118.233481}, "G00023700600602010": {"name": "临沂商城出口收费广场", "lat": 35.064425, "lng": 118.233481}, "G00023700600701010": {"name": "郯城南入口收费广场", "lat": 34.57948, "lng": 118.265989}, "G00023700600702010": {"name": "郯城南出口收费广场", "lat": 34.57948, "lng": 118.265989}, "G00023700800101010": {"name": "遥墙收费站入口广场", "lat": 36.81752359513882, "lng": 117.1845574726508}, "G00023700800102010": {"name": "遥墙收费站出口广场", "lat": 36.81758324992438, "lng": 117.18468274107003}, "G00023700800201010": {"name": "济阳收费站入口广场", "lat": 36.84492525237286, "lng": 117.1159254699058}, "G00023700800202010": {"name": "济阳收费站出口广场", "lat": 36.84503145209587, "lng": 117.11613224637908}, "G00023700800301010": {"name": "靳家收费站外广场", "lat": 36.84365387748241, "lng": 117.0074128659722}, "G00023700800302010": {"name": "靳家收费站内广场", "lat": 36.84372710699252, "lng": 117.00745984455745}, "G00023700800401020": {"name": "齐河东收费站入口广场", "lat": 36.79643755220566, "lng": 116.855371767292}, "G00023700800402010": {"name": "齐河东收费站出口广场", "lat": 36.79641436185737, "lng": 116.85550634685411}, "G00023700900101010": {"name": "济南东收费站入口广场", "lat": 36.67645287120958, "lng": 117.21018661164156}, "G00023700900102010": {"name": "济南东收费站出口广场", "lat": 36.67652512258569, "lng": 117.2099199244768}, "G00023700900201010": {"name": "郭店收费站入口广场", "lat": 36.72546461121411, "lng": 117.20871080251123}, "G00023700900202010": {"name": "郭店收费站出口广场", "lat": 36.72487749546284, "lng": 117.20797237611802}, "G00023700900301010": {"name": "机场收费站入口广场", "lat": 36.84181685969108, "lng": 117.20531351689948}, "G00023700900302010": {"name": "机场收费站出口广场", "lat": 36.84181033372248, "lng": 117.205612516797}, "G00023701000101010": {"name": "济南南收费站入口广场", "lat": 36.55012990281021, "lng": 116.9946316614507}, "G00023701000102010": {"name": "济南南收费站出口广场", "lat": 36.54990381046871, "lng": 116.99328155655398}, "G00023701000204010": {"name": "市中收费站广场", "lat": 36.56639770736402, "lng": 116.92663724484191}, "G00023701100101010": {"name": "济阳西收费站入口广场", "lat": 36.973592016210645, "lng": 117.0552367661676}, "G00023701100102020": {"name": "济阳西收费站出口广场", "lat": 36.97359125101758, "lng": 117.0554213947252}, "G00023701100201010": {"name": "济阳北收费站入口广场", "lat": 37.06681524255725, "lng": 117.03714624541942}, "G00023701100202020": {"name": "济阳北收费站出口广场", "lat": 37.06682864588622, "lng": 117.0374054304684}, "G00023701100301010": {"name": "临邑收费站入口广场", "lat": 37.15197941366869, "lng": 117.03047544907844}, "G00023701100302020": {"name": "临邑收费站出口广场", "lat": 37.1520955954628, "lng": 117.03067825362312}, "G00023701100401010": {"name": "商河收费站入口广场", "lat": 37.2679737355775, "lng": 117.09109841567664}, "G00023701100402020": {"name": "商河收费站出口广场", "lat": 37.2680129771984, "lng": 117.09134929134244}, "G00023701100501010": {"name": "乐陵南收费站入口广场", "lat": 37.51888971353844, "lng": 117.1289486183304}, "G00023701100502020": {"name": "乐陵南收费站出口广场", "lat": 37.51876036733901, "lng": 117.12893145212723}, "G00023701100601010": {"name": "乐陵西收费站入口广场", "lat": 37.70619428058066, "lng": 117.1089522241982}, "G00023701100602020": {"name": "乐陵西收费站出口广场", "lat": 37.70603130702172, "lng": 117.10908526169985}, "G00023701100701010": {"name": "乐陵北收费站入口广场", "lat": 37.813348547694815, "lng": 117.10409650338836}, "G00023701100702020": {"name": "乐陵北收费站出口广场", "lat": 37.81340272868961, "lng": 117.10385117372388}, "G00023701100801010": {"name": "京沪鲁冀收费站入口广场", "lat": 37.835635, "lng": 117.110939}, "G00023701100802010": {"name": "京沪鲁冀收费站出口广场", "lat": 37.835635, "lng": 117.110939}, "G00023701200101010": {"name": "和庄收费站入口广场", "lat": 36.40951555264091, "lng": 117.81181807699652}, "G00023701200102010": {"name": "和庄收费站出口广场", "lat": 36.40942822265359, "lng": 117.81177792979342}, "G00023701200201010": {"name": "苗山收费站入口广场", "lat": 36.32374122889418, "lng": 117.7878977229827}, "G00023701200202010": {"name": "苗山收费站出口广场", "lat": 36.32376561252222, "lng": 117.78786501268162}, "G00023701200301010": {"name": "莱芜东收费站入口广场", "lat": 36.193477, "lng": 117.743891}, "G00023701200301020": {"name": "莱芜东收费站入口广场", "lat": 36.197192, "lng": 117.739999}, "G00023701200302010": {"name": "莱芜东收费站出口广场", "lat": 36.193459, "lng": 117.744093}, "G00023701200302020": {"name": "莱芜东收费站出口广场", "lat": 36.197232, "lng": 117.7398}, "G00023701200401010": {"name": "钢城收费站入口广场", "lat": 36.075552270006966, "lng": 117.79315173789928}, "G00023701200402010": {"name": "钢城收费站出口广场", "lat": 36.075277720628776, "lng": 117.79317571385964}, "G00023701200501010": {"name": "莱芜南收费站入口广场", "lat": 36.183410028546135, "lng": 117.69850837689006}, "G00023701200502010": {"name": "莱芜南收费站出口广场", "lat": 36.18360501206658, "lng": 117.69851310709647}, "G00023701300101010": {"name": "泰安南收费站入口广场", "lat": 36.14428156677843, "lng": 117.09828560942366}, "G00023701300102010": {"name": "泰安南收费站出口广场", "lat": 36.14451106292333, "lng": 117.0983967641362}, "G00023701300201010": {"name": "泰安东收费站入口广场", "lat": 36.14851273312336, "lng": 117.1716227085311}, "G00023701300202010": {"name": "泰安东收费站出口广场", "lat": 36.14845396442762, "lng": 117.17175827125992}, "G00023701300301010": {"name": "化马湾收费站入口广场", "lat": 36.06675085328882, "lng": 117.43333827142746}, "G00023701300302010": {"name": "化马湾收费站出口广场", "lat": 36.06669825564448, "lng": 117.43344308012573}, "G00023701300401010": {"name": "新泰西收费站入口广场", "lat": 35.9485605093641, "lng": 117.53726843491708}, "G00023701300402010": {"name": "新泰西收费站出口广场", "lat": 35.94847219365492, "lng": 117.5372934451651}, "G00023701300501010": {"name": "新泰南收费站入口广场", "lat": 35.84995882626943, "lng": 117.686712851257}, "G00023701300502010": {"name": "新泰南收费站出口广场", "lat": 35.84964311355462, "lng": 117.68689996426887}, "G00023701300601010": {"name": "新泰东收费站入口广场", "lat": 35.92792758522978, "lng": 117.82464973511924}, "G00023701300602010": {"name": "新泰东收费站出口广场", "lat": 35.9279884288771, "lng": 117.8244773510446}, "G00023701300604010": {"name": "新泰东收费东广场", "lat": 35.92792591436526, "lng": 117.8246572051565}, "G00023701300604020": {"name": "新泰东收费西广场", "lat": 35.9279918767631, "lng": 117.82447441762164}, "G00023701400101010": {"name": "莱芜东入口收费广场", "lat": 36.203488, "lng": 117.746322}, "G00023701400102010": {"name": "莱芜东出口收费广场", "lat": 36.203488, "lng": 117.746322}, "G00023701400201010": {"name": "钢城入口收费广场", "lat": 36.081081, "lng": 117.799706}, "G00023701400202010": {"name": "钢城出口收费广场", "lat": 36.081081, "lng": 117.799706}, "G00023701500101010": {"name": "新泰北入口东收费广场", "lat": 35.930075, "lng": 117.877863}, "G00023701500101020": {"name": "新泰北入口西收费广场", "lat": 35.935201, "lng": 117.831541}, "G00023701500102010": {"name": "新泰北出口东收费广场", "lat": 35.930075, "lng": 117.877863}, "G00023701500102020": {"name": "新泰北出口西收费广场", "lat": 35.935201, "lng": 117.831541}, "G00023701500201010": {"name": "新泰东入口收费广场", "lat": 35.862263, "lng": 117.837233}, "G00023701500202010": {"name": "新泰东出口收费广场", "lat": 35.862263, "lng": 117.837233}, "G00033700100101010": {"name": "京台鲁冀收费站入口广场", "lat": 37.3033, "lng": 116.2324}, "G00033700100102010": {"name": "京台鲁冀收费站出口广场", "lat": 37.3033, "lng": 116.2324}, "G00033700100301010": {"name": "德州收费站入口广场", "lat": 37.421309704118016, "lng": 116.38438219821488}, "G00033700100302010": {"name": "德州收费站出口广场", "lat": 37.42136547575504, "lng": 116.38480040221036}, "G00033700100401010": {"name": "德州南收费站入口广场", "lat": 37.374436122322905, "lng": 116.38168407290804}, "G00033700100402010": {"name": "德州南收费站出口广场", "lat": 37.37448723777119, "lng": 116.3817058222078}, "G00033700100501010": {"name": "平原收费站入口广场", "lat": 37.21640849031908, "lng": 116.49184713368828}, "G00033700100502010": {"name": "平原收费站出口广场", "lat": 37.2165384278926, "lng": 116.49178844389424}, "G00033700100601010": {"name": "平原南收费(辅站)入口广场", "lat": 37.12573082002771, "lng": 116.5691210467113}, "G00033700100602010": {"name": "平原南收费(辅站)出口广场", "lat": 37.12570539696408, "lng": 116.56904932149531}, "G00033700200101010": {"name": "泰安西收费站入口外广场", "lat": 36.18481116515875, "lng": 117.02258732589114}, "G00033700200102010": {"name": "泰安西收费站出口内广场", "lat": 36.18470052005593, "lng": 117.02285973321032}, "G00033700200301010": {"name": "满庄收费站入口外广场", "lat": 36.03388608336549, "lng": 117.09315980664311}, "G00033700200302010": {"name": "满庄收费站出口内广场", "lat": 36.03401525580628, "lng": 117.0931562214398}, "G00033700200401010": {"name": "宁阳东收费站入口外广场", "lat": 35.911406262049965, "lng": 117.06780109910746}, "G00033700200402010": {"name": "宁阳东收费站出口内广场", "lat": 35.91156852239496, "lng": 117.06778107964756}, "G00033700200504010": {"name": "泰安北收费广场", "lat": 36.141732, "lng": 117.290438}, "G00033700300101010": {"name": "曲阜北收费站入口外广场", "lat": 35.73891177416044, "lng": 117.05946531050247}, "G00033700300102010": {"name": "曲阜北收费站出口内广场", "lat": 35.73893538617146, "lng": 117.05961294360708}, "G00033700300201010": {"name": "曲阜收费站入口外广场", "lat": 35.599794802460224, "lng": 117.04351769503072}, "G00033700300202010": {"name": "曲阜收费站出口内广场", "lat": 35.59975953281223, "lng": 117.04335793324483}, "G00033700300301010": {"name": "邹城收费站入口外广场", "lat": 35.409223087939935, "lng": 117.06325653849925}, "G00033700300302010": {"name": "邹城收费站出口内广场", "lat": 35.409387526230134, "lng": 117.06340126149674}, "G00033700300401010": {"name": "峄山收费站入口外广场", "lat": 35.30086361525022, "lng": 117.08949276531438}, "G00033700300402010": {"name": "峄山收费站出口内广场", "lat": 35.30092934678716, "lng": 117.08933188466249}, "G00033700300504010": {"name": "邹城北入口收费广场", "lat": 35.40371, "lng": 117.067034}, "G00033700300504020": {"name": "邹城北出口收费广场", "lat": 35.403763, "lng": 117.067096}, "G00033700400101010": {"name": "天桥收费站入口外广场", "lat": 36.72005203662815, "lng": 116.92864962981858}, "G00033700400102010": {"name": "天桥收费站出口内广场", "lat": 36.71983377515989, "lng": 116.9281913114876}, "G00033700400201010": {"name": "济南西收费站入口外广场", "lat": 36.6525588707224, "lng": 116.88756028827083}, "G00033700400202010": {"name": "济南西收费站出口内广场", "lat": 36.65233624344837, "lng": 116.8873968204542}, "G00033700400301010": {"name": "崮山收费站入口外广场", "lat": 36.55694900141823, "lng": 116.85271786491424}, "G00033700400301020": {"name": "崮山收费站分站入口外广场", "lat": 36.55159884801249, "lng": 116.84733799318714}, "G00033700400302010": {"name": "崮山收费站出口内广场", "lat": 36.556663973378704, "lng": 116.85292427965403}, "G00033700400302020": {"name": "崮山收费站分站出口内广场", "lat": 36.55175520311599, "lng": 116.84728397927124}, "G00033700400401010": {"name": "万德收费站入口外广场", "lat": 36.34843306666305, "lng": 116.91124117008528}, "G00033700400402010": {"name": "万德收费站出口内广场", "lat": 36.34836315566038, "lng": 116.9112393174654}, "G00033700400501010": {"name": "济南北收费站入口外广场", "lat": 36.711437849790215, "lng": 117.0212756813186}, "G00033700400502010": {"name": "济南北收费站出口内广场", "lat": 36.71143964104631, "lng": 117.020906893743}, "G00033700400601010": {"name": "国际医学中心入口收费广场", "lat": 36.68034771268927, "lng": 116.87396525045958}, "G00033700400602020": {"name": "国际医学中心出口收费广场", "lat": 36.68041950148664, "lng": 116.8737379728003}, "G00033700500101010": {"name": "禹城收费站入口广场", "lat": 36.969354539267584, "lng": 116.68124771681582}, "G00033700500102010": {"name": "禹城收费站出口广场", "lat": 36.96928792644791, "lng": 116.68104984644656}, "G00033700500201010": {"name": "齐河收费站入口广场", "lat": 36.837033, "lng": 116.768321}, "G00033700500202010": {"name": "齐河收费站出口广场", "lat": 36.837033, "lng": 116.768321}, "G00033700500301010": {"name": "齐河生态城入口收费广场", "lat": 36.749989470748645, "lng": 116.85385675519044}, "G00033700500302020": {"name": "齐河生态城出口收费广场", "lat": 36.74989505015718, "lng": 116.85359200239894}, "G00033700500404010": {"name": "禹城东收费广场", "lat": 36.916695, "lng": 116.705932}, "G00033700800101010": {"name": "滕州收费站入口广场", "lat": 35.12725314813076, "lng": 117.19083533969427}, "G00033700800101015": {"name": "滕州收费站入口广场", "lat": 35.12725314813076, "lng": 117.19083533969427}, "G00033700800102010": {"name": "滕州收费站出口广场", "lat": 35.127252002290106, "lng": 117.19062625619668}, "G00033700800102015": {"name": "滕州收费站出口广场", "lat": 35.127252002290106, "lng": 117.19062625619668}, "G00033700800201010": {"name": "滕州南收费站入口广场", "lat": 34.998311063909725, "lng": 117.22166501245428}, "G00033700800201016": {"name": "滕州南收费站入口广场", "lat": 34.99831252225893, "lng": 117.2216637349935}, "G00033700800202010": {"name": "滕州南收费站出口广场", "lat": 34.99849065518947, "lng": 117.2217124401088}, "G00033700800202016": {"name": "滕州南收费站出口广场", "lat": 34.99849065518947, "lng": 117.2217124401088}, "G00033700800301010": {"name": "枣庄收费站入口广场", "lat": 34.80903028201408, "lng": 117.29428441154217}, "G00033700800301017": {"name": "枣庄收费站入口广场", "lat": 34.80903215973564, "lng": 117.2943299523425}, "G00033700800302010": {"name": "枣庄收费站出口广场", "lat": 34.808921274262914, "lng": 117.29399484722296}, "G00033700800302017": {"name": "枣庄收费站出口广场", "lat": 34.808921274262914, "lng": 117.29399484722296}, "G00033700800401010": {"name": "峄城收费站入口广场", "lat": 34.607747240477764, "lng": 117.41332845186876}, "G00033700800401018": {"name": "峄城收费站入口广场", "lat": 34.60775735868059, "lng": 117.41335589433425}, "G00033700800402010": {"name": "峄城收费站出口广场", "lat": 34.60781874695819, "lng": 117.41320630587992}, "G00033700800402018": {"name": "峄城收费站出口广场", "lat": 34.60781874695819, "lng": 117.41320630587992}, "G00033700800501010": {"name": "京台鲁苏收费站入口广场", "lat": 34.537152, "lng": 117.424543}, "G00033700800501019": {"name": "京台鲁苏收费站入口广场", "lat": 34.537152, "lng": 117.424543}, "G00033700800502010": {"name": "京台鲁苏收费站出口广场", "lat": 34.537152, "lng": 117.424543}, "G00033700800604010": {"name": "枣庄南入口收费广场", "lat": 34.74628, "lng": 117.31049}, "G00033700800604020": {"name": "枣庄南出口收费广场", "lat": 34.746135, "lng": 117.3104}, "G00033700800704010": {"name": "微山湖入口收费广场", "lat": 34.714414, "lng": 117.31894}, "G00033700800704020": {"name": "微山湖出口收费广场", "lat": 34.714481, "lng": 117.31898}, "G00033700800804010": {"name": "枣庄北入口收费广场", "lat": 34.873901, "lng": 117.267488}, "G00033700800804020": {"name": "枣庄北出口收费广场", "lat": 34.873871, "lng": 117.267421}, "G00153700100101010": {"name": "中桥收费站入口广场", "lat": 37.49733766454452, "lng": 121.07109117434766}, "G00153700100102010": {"name": "中桥收费站出口广场", "lat": 37.49743358304873, "lng": 121.07100264272674}, "G00153700100201010": {"name": "臧家庄收费站入口广场", "lat": 37.47698336645775, "lng": 120.99520554157324}, "G00153700100202010": {"name": "臧家庄收费站出口广场", "lat": 37.477069448750925, "lng": 120.99513700470804}, "G00153700100301010": {"name": "栖霞北收费站入口广场", "lat": 37.423447240323824, "lng": 120.87777085989954}, "G00153700100302010": {"name": "栖霞北收费站出口广场", "lat": 37.423508749279065, "lng": 120.8775552005993}, "G00153700100401010": {"name": "栖霞收费站入口广场", "lat": 37.31653289396464, "lng": 120.76258480125809}, "G00153700100402010": {"name": "栖霞收费站出口广场", "lat": 37.316541203777945, "lng": 120.76238673094}, "G00153700100501010": {"name": "栖霞南收费站入口广场", "lat": 37.19883907434871, "lng": 120.67854207046764}, "G00153700100502010": {"name": "栖霞南收费站出口广场", "lat": 37.19888836616272, "lng": 120.6787146123096}, "G00153700100601010": {"name": "莱阳收费站入口广场", "lat": 37.13548475802284, "lng": 120.63043231530952}, "G00153700100602010": {"name": "莱阳收费站出口广场", "lat": 37.135402649282426, "lng": 120.63060617481813}, "G00153700200101010": {"name": "河头店收费站入口广场", "lat": 37.02227497674245, "lng": 120.56335247781335}, "G00153700200102010": {"name": "河头店收费站出口广场", "lat": 37.02223999153459, "lng": 120.56331666174374}, "G00153700300101010": {"name": "牛溪埠入口收费广场", "lat": 36.84096611769967, "lng": 120.42295135276132}, "G00153700300102020": {"name": "牛溪埠出口收费广场", "lat": 36.84092184606108, "lng": 120.42287033689318}, "G00153700300201010": {"name": "院上入口收费广场", "lat": 36.76330085146016, "lng": 120.34318816345818}, "G00153700300202020": {"name": "院上出口收费广场", "lat": 36.76345897121036, "lng": 120.34325055763192}, "G00153700400101010": {"name": "仁兆入口收费广场", "lat": 36.62326541239143, "lng": 120.19035687198922}, "G00153700400102020": {"name": "仁兆出口收费广场", "lat": 36.62317772378499, "lng": 120.19042685007462}, "G00153700400201010": {"name": "南村入口收费广场", "lat": 36.55571823183946, "lng": 120.11515712242088}, "G00153700400202020": {"name": "南村出口收费广场", "lat": 36.55571841316717, "lng": 120.1153036075916}, "G00153700500101010": {"name": "沈海胶州入口收费广场", "lat": 36.24629367774344, "lng": 119.95415937348191}, "G00153700500102020": {"name": "沈海胶州出口收费广场", "lat": 36.24654273818892, "lng": 119.95415689673716}, "G00153700500201010": {"name": "九龙入口收费广场", "lat": 36.16681421651546, "lng": 119.97806253647455}, "G00153700500202020": {"name": "九龙出口收费广场", "lat": 36.16681715045601, "lng": 119.97819948250864}, "G00153700500301010": {"name": "王台入口收费广场", "lat": 36.08358288097902, "lng": 119.98389896310596}, "G00153700500302020": {"name": "王台出口收费广场", "lat": 36.083555219294055, "lng": 119.98370071702504}, "G00153700600101010": {"name": "铁山入口收费广场", "lat": 35.89043942442383, "lng": 119.93966576420164}, "G00153700600102020": {"name": "铁山出口收费广场", "lat": 35.89031802427476, "lng": 119.9397863169995}, "G00153700600201010": {"name": "泊里入口收费广场", "lat": 35.69892478216599, "lng": 119.73467385426554}, "G00153700600202020": {"name": "泊里出口收费广场", "lat": 35.69885961445168, "lng": 119.73454086319396}, "G00153700600301010": {"name": "大场入口收费广场", "lat": 35.64655658116844, "lng": 119.63498897969498}, "G00153700600302020": {"name": "大场出口收费广场", "lat": 35.64668148872836, "lng": 119.63500331868632}, "G00153700700101010": {"name": "日照北收费站入口广场", "lat": 35.477928525559406, "lng": 119.47642126831909}, "G00153700700102010": {"name": "日照北收费站出口广场", "lat": 35.4777005900458, "lng": 119.47625596680868}, "G00153700700201010": {"name": "日照南收费站入口广场", "lat": 35.281204533926484, "lng": 119.35917583938657}, "G00153700700202010": {"name": "日照南收费站出口广场", "lat": 35.28106826309035, "lng": 119.35912477219576}, "G00153700700301010": {"name": "岚山收费站入口广场", "lat": 35.13663265821266, "lng": 119.2706125358197}, "G00153700700302010": {"name": "岚山收费站出口广场", "lat": 35.13668636089797, "lng": 119.27062392203102}, "G00153700700401010": {"name": "鲁苏省界收费站入口广场", "lat": 35.119904, "lng": 119.256318}, "G00153700700402010": {"name": "鲁苏省界收费站出口广场", "lat": 35.119904, "lng": 119.256318}, "G00153700700501010": {"name": "日照港收费站入口广场", "lat": 35.37307156509384, "lng": 119.41779021970916}, "G00153700700502010": {"name": "日照港收费站出口广场", "lat": 35.37258384865656, "lng": 119.41728897262148}, "G00153700800101010": {"name": "莱山收费站入口广场", "lat": 37.4333055357025, "lng": 121.41523061131186}, "G00153700800102010": {"name": "莱山收费站出口广场", "lat": 37.433133366832976, "lng": 121.41533654783808}, "G00153700800201010": {"name": "杜家疃收费站入口广场", "lat": 37.437346670053046, "lng": 121.36104198875678}, "G00153700800202010": {"name": "杜家疃收费站出口广场", "lat": 37.4375561598942, "lng": 121.36091094844056}, "G00153700800301010": {"name": "崇义收费站入口广场", "lat": 37.46296924664233, "lng": 121.2684092250639}, "G00153700800302010": {"name": "崇义收费站出口广场", "lat": 37.46305338709397, "lng": 121.26860820433788}, "G00153700800401010": {"name": "东厅收费站入口广场", "lat": 37.4761274148195, "lng": 121.2269977050773}, "G00153700800402010": {"name": "东厅收费站出口广场", "lat": 37.47610475539551, "lng": 121.22680865470954}, "G00153700800501010": {"name": "古现收费站入口广场", "lat": 37.57393940270288, "lng": 121.11121563859685}, "G00153700800502010": {"name": "古现收费站出口广场", "lat": 37.57412776424485, "lng": 121.11130974748342}, "G00153700800601010": {"name": "八角收费站入口广场", "lat": 37.64991288228092, "lng": 121.1025885905685}, "G00153700800602010": {"name": "八角收费站出口广场", "lat": 37.65004804596366, "lng": 121.1026619895332}, "G00153700800701010": {"name": "福山收费站入口广场", "lat": 37.53091991433925, "lng": 121.22030409609891}, "G00153700800702010": {"name": "福山收费站出口广场", "lat": 37.53068037092392, "lng": 121.22040651553164}, "G00153700800801010": {"name": "烟台西港收费站入口广场", "lat": 37.66674039709889, "lng": 121.1173387555215}, "G00153700800802010": {"name": "烟台西港收费站出口广场", "lat": 37.66673753809857, "lng": 121.11751936475072}, "G00153700900601010": {"name": "日照机场收费站入口广场", "lat": 35.39554866372677, "lng": 119.3729221505058}, "G00153700900602010": {"name": "日照机场收费站出口广场", "lat": 35.39562980636241, "lng": 119.3728571953364}, "G00183700100101010": {"name": "荣成收费站入口广场", "lat": 37.078285586225405, "lng": 122.33972975014532}, "G00183700100102010": {"name": "荣成收费站出口广场", "lat": 37.07791697372717, "lng": 122.34003714874774}, "G00183700100201010": {"name": "荣成西收费站入口广场", "lat": 37.07758719375627, "lng": 122.2793933938484}, "G00183700100202010": {"name": "荣成西收费站出口广场", "lat": 37.07741570743077, "lng": 122.27950007921514}, "G00183700100301010": {"name": "文登南收费站入口广场", "lat": 37.06040863864817, "lng": 122.1552013674266}, "G00183700100302010": {"name": "文登南收费站出口广场", "lat": 37.06024414420811, "lng": 122.1552742647812}, "G00183700100401010": {"name": "南海新港收费站入口广场", "lat": 37.049262498529245, "lng": 122.06613420015738}, "G00183700100402010": {"name": "南海新港收费站出口广场", "lat": 37.04909451409017, "lng": 122.0661717898989}, "G00183700200101010": {"name": "双岛收费站入口广场", "lat": 37.47601572281336, "lng": 121.97705682777983}, "G00183700200102010": {"name": "双岛收费站出口广场", "lat": 37.47588698720803, "lng": 121.97710201480145}, "G00183700200201010": {"name": "北海收费站上行方向入口广场", "lat": 37.4671446985969, "lng": 121.93642289698532}, "G00183700200201020": {"name": "北海收费站下行方向入口广场", "lat": 37.4653121400473, "lng": 121.93543584406784}, "G00183700200202010": {"name": "北海收费站上行方向出口广场", "lat": 37.46781161187323, "lng": 121.935603077707}, "G00183700200202020": {"name": "北海收费站下行方向出口广场", "lat": 37.46468019611996, "lng": 121.9337444827314}, "G00183700300101010": {"name": "酒馆收费站入口广场", "lat": 37.45026831539112, "lng": 121.8814245366383}, "G00183700300102010": {"name": "酒馆收费站出口广场", "lat": 37.45020179632191, "lng": 121.88123580745518}, "G00183700300201010": {"name": "牟平东收费站入口广场", "lat": 37.43156830940447, "lng": 121.68136621278916}, "G00183700300202010": {"name": "牟平东收费站出口广场", "lat": 37.43153688328356, "lng": 121.68134103396469}, "G00183700300301010": {"name": "养马岛收费站上行方向入口广场", "lat": 37.42545786734928, "lng": 121.59823686464436}, "G00183700300301020": {"name": "养马岛收费站下行方向入口广场", "lat": 37.42001869696141, "lng": 121.5986673082152}, "G00183700300302010": {"name": "养马岛收费站上行方向出口广场", "lat": 37.42540851087715, "lng": 121.59875366774246}, "G00183700300302020": {"name": "养马岛收费站下行方向出口广场", "lat": 37.4200473349823, "lng": 121.5980917722585}, "G00183700400101010": {"name": "新河收费站入口广场", "lat": 36.94762372133977, "lng": 119.6103675297608}, "G00183700400102010": {"name": "新河收费站出口广场", "lat": 36.94774235829668, "lng": 119.61031571869182}, "G00183700500101010": {"name": "蓬莱收费站入口广场", "lat": 37.63439333573179, "lng": 120.86431514540924}, "G00183700500102010": {"name": "蓬莱收费站出口广场", "lat": 37.634552388744495, "lng": 120.8643669148836}, "G00183700500201010": {"name": "蓬莱西收费站入口广场", "lat": 37.63733489550907, "lng": 120.69071981502088}, "G00183700500202010": {"name": "蓬莱西收费站出口广场", "lat": 37.63739513657836, "lng": 120.6905548406404}, "G00183700500301010": {"name": "黄城收费站入口广场", "lat": 37.61650377965499, "lng": 120.5002966610738}, "G00183700500302010": {"name": "黄城收费站出口广场", "lat": 37.61629053243834, "lng": 120.5004143815134}, "G00183700500401010": {"name": "龙口收费站入口广场", "lat": 37.53918085645964, "lng": 120.35059078653286}, "G00183700500402010": {"name": "龙口收费站出口广场", "lat": 37.53930235784266, "lng": 120.35071007443652}, "G00183700500501010": {"name": "龙口港收费站入口广场", "lat": 37.59625778972497, "lng": 120.3656556111646}, "G00183700500502010": {"name": "龙口港收费站出口广场", "lat": 37.596195149043965, "lng": 120.3660894082573}, "G00183700500601010": {"name": "烟台机场收费站入口广场", "lat": 37.635463707686256, "lng": 121.0063139864}, "G00183700500602010": {"name": "烟台机场收费站出口广场", "lat": 37.63547709692234, "lng": 121.00682418392763}, "G00183700600101010": {"name": "招远收费站入口广场", "lat": 37.39645390265629, "lng": 120.259200661904}, "G00183700600102010": {"name": "招远收费站出口广场", "lat": 37.39631985497175, "lng": 120.25927984281604}, "G00183700600201010": {"name": "朱桥收费站入口广场", "lat": 37.285158405384166, "lng": 120.1527764781408}, "G00183700600202010": {"name": "朱桥收费站出口广场", "lat": 37.285221872940014, "lng": 120.15274063876112}, "G00183700600301010": {"name": "莱州东收费站入口广场", "lat": 37.2272478237839, "lng": 120.06392584255885}, "G00183700600302010": {"name": "莱州东收费站出口广场", "lat": 37.22732335437699, "lng": 120.06388592269153}, "G00183700600401010": {"name": "莱州收费站入口广场", "lat": 37.13361414195768, "lng": 119.93500852228642}, "G00183700600402010": {"name": "莱州收费站出口广场", "lat": 37.13337688941219, "lng": 119.9351377776552}, "G00183700600501010": {"name": "沙河收费站入口广场", "lat": 37.02161253421684, "lng": 119.80390498793813}, "G00183700600502010": {"name": "沙河收费站出口广场", "lat": 37.02162537181941, "lng": 119.80403985786806}, "G00183700600601010": {"name": "莱州港收费站入口广场", "lat": 37.37430585259354, "lng": 120.00806704955367}, "G00183700600602010": {"name": "莱州港收费站出口广场", "lat": 37.37434763772505, "lng": 120.00811436933913}, "G00183700600701010": {"name": "招远北收费站入口广场", "lat": 37.46420632196923, "lng": 120.31069293564929}, "G00183700600702010": {"name": "招远北收费站出口广场", "lat": 37.46398915108941, "lng": 120.31063425100449}, "G00183700700101010": {"name": "下营收费站入口广场", "lat": 36.95929619219999, "lng": 119.4766145994174}, "G00183700700102010": {"name": "下营收费站出口广场", "lat": 36.95941576775276, "lng": 119.47656810100928}, "G00183700700201010": {"name": "昌邑收费站入口广场", "lat": 36.95810685661751, "lng": 119.39148531473256}, "G00183700700202010": {"name": "昌邑收费站出口广场", "lat": 36.9579310241392, "lng": 119.3914360563337}, "G00183700700301010": {"name": "潍坊北收费站入口广场", "lat": 36.97764735737197, "lng": 119.16495551348852}, "G00183700700302010": {"name": "潍坊北收费站出口广场", "lat": 36.977761495408686, "lng": 119.16467291679253}, "G00183700700401010": {"name": "寿光东收费站入口广场", "lat": 37.01049662719936, "lng": 118.97317872492188}, "G00183700700402010": {"name": "寿光东收费站出口广场", "lat": 37.010593634079626, "lng": 118.97325535364352}, "G00183700700501010": {"name": "寿光北收费站入口广场", "lat": 37.0207416626495, "lng": 118.86998540532348}, "G00183700700502010": {"name": "寿光北收费站出口广场", "lat": 37.02094805574947, "lng": 118.86999725327126}, "G00183700700601010": {"name": "寿光西收费站入口广场", "lat": 37.07393486383312, "lng": 118.71975864112189}, "G00183700700602010": {"name": "寿光西收费站出口广场", "lat": 37.07385876713573, "lng": 118.7196484463078}, "G00183700900101010": {"name": "垦利北收费站入口广场", "lat": 37.57511498049936, "lng": 118.61154435276129}, "G00183700900102010": {"name": "垦利北收费站出口广场", "lat": 37.5750888554101, "lng": 118.61138424416416}, "G00183701100101010": {"name": "利津收费站入口广场", "lat": 37.70730113466027, "lng": 118.36307538160432}, "G00183701100102010": {"name": "利津收费站出口广场", "lat": 37.70718331312514, "lng": 118.36303052739684}, "G00183701100201010": {"name": "陈庄收费站入口广场", "lat": 37.70808396822173, "lng": 118.50612297668644}, "G00183701100202010": {"name": "陈庄收费站出口广场", "lat": 37.70821078499358, "lng": 118.50636206607346}, "G00183701200101010": {"name": "垦利入口广场", "lat": 37.5415312577348, "lng": 118.594822830952}, "G00183701200102010": {"name": "垦利出口广场", "lat": 37.54174825780632, "lng": 118.59495622823034}, "G00183701200201010": {"name": "东营北入口广场", "lat": 37.468586, "lng": 118.600356}, "G00183701200202010": {"name": "东营北出口广场", "lat": 37.468597, "lng": 118.600589}, "G00183701200301010": {"name": "东营入口广场", "lat": 37.40217894630135, "lng": 118.6012625865733}, "G00183701200302010": {"name": "东营出口广场", "lat": 37.40232052002298, "lng": 118.60154592261334}, "G00183701200401010": {"name": "李庄入口广场", "lat": 37.245297886354, "lng": 118.593845323281}, "G00183701200402010": {"name": "李庄出口广场", "lat": 37.24530327165212, "lng": 118.5936865993912}, "G00183701200501010": {"name": "广饶入口广场", "lat": 37.042555409081615, "lng": 118.5362749014196}, "G00183701200502010": {"name": "广饶出口广场", "lat": 37.04253519955593, "lng": 118.53645165411766}, "G00183701300101010": {"name": "滨州收费站入口广场", "lat": 37.36395904379512, "lng": 117.91464133888655}, "G00183701300102010": {"name": "滨州收费站出口广场", "lat": 37.36386905891212, "lng": 117.91490283106536}, "G00183701300201010": {"name": "滨城收费站入口广场", "lat": 37.41419165656632, "lng": 117.90635126831911}, "G00183701300202010": {"name": "滨城收费站出口广场", "lat": 37.414100475938966, "lng": 117.90649005412902}, "G00183701300301010": {"name": "滨州北收费站入口广场", "lat": 37.49453744625987, "lng": 117.91065927116396}, "G00183701300302010": {"name": "滨州北收费站出口广场", "lat": 37.49457839677287, "lng": 117.91047214975195}, "G00183701300401010": {"name": "大高收费站入口广场", "lat": 37.60973717530629, "lng": 117.85902429163264}, "G00183701300402010": {"name": "大高收费站出口广场", "lat": 37.60989252038122, "lng": 117.85916652694064}, "G00183701300501010": {"name": "滨州南收费站入口广场", "lat": 37.30038165301018, "lng": 117.93157297668648}, "G00183701300502010": {"name": "滨州南收费站出口广场", "lat": 37.30026546582879, "lng": 117.93158248772497}, "G00183701300601010": {"name": "鲁北收费站入口广场", "lat": 38.03785, "lng": 117.591946}, "G00183701300602010": {"name": "鲁北收费站出口广场", "lat": 38.03785, "lng": 117.591946}, "G00183701300701010": {"name": "无棣收费站入口广场", "lat": 37.91203436301625, "lng": 117.6621124710776}, "G00183701300702010": {"name": "无棣收费站出口广场", "lat": 37.91193372965553, "lng": 117.6621471419384}, "G00183701300801010": {"name": "古城收费站入口广场", "lat": 37.69948710883848, "lng": 117.83717692109776}, "G00183701300802010": {"name": "古城收费站出口广场", "lat": 37.69938927077085, "lng": 117.83706391150308}, "G00183701400101010": {"name": "滨州港收费站入口广场", "lat": 37.73313290880344, "lng": 117.90398134184282}, "G00183701400102010": {"name": "滨州港收费站出口广场", "lat": 37.733323612078976, "lng": 117.90395044019871}, "G00183701400201010": {"name": "沾化西收费站入口广场", "lat": 37.73519796920813, "lng": 118.07700304103724}, "G00183701400202010": {"name": "沾化西收费站出口广场", "lat": 37.73536893066981, "lng": 118.07707053826806}, "G00183701400301010": {"name": "沾化东收费站入口广场", "lat": 37.7347444226353, "lng": 118.1678659794315}, "G00183701400302010": {"name": "沾化东收费站出口广场", "lat": 37.734946165456336, "lng": 118.1677925302763}, "G00183701500101010": {"name": "灰埠收费站入口广场", "lat": 36.98086603576746, "lng": 119.71754210362866}, "G00183701500102010": {"name": "灰埠收费站出口广场", "lat": 36.9809325804528, "lng": 119.71759527019944}, "G00183701600101010": {"name": "威海收费站收费入口广场", "lat": 37.29658168135147, "lng": 122.1142365103162}, "G00183701600102010": {"name": "威海收费站收费出口广场", "lat": 37.29645542266024, "lng": 122.11429226827416}, "G00183701600201010": {"name": "文登北收费站收费入口广场", "lat": 37.24895000000862, "lng": 122.05883741468053}, "G00183701600201013": {"name": "文登北收费站收费入口广场", "lat": 37.24895448724496, "lng": 122.05883649310118}, "G00183701600202010": {"name": "文登北收费站收费出口广场", "lat": 37.24875631381708, "lng": 122.05911220732204}, "G00183701600202014": {"name": "文登北收费站收费出口广场", "lat": 37.24875631381708, "lng": 122.05911220732204}, "G00183701600301010": {"name": "文登收费站收费入口广场", "lat": 37.1682230268291, "lng": 122.0074289156078}, "G00183701600301015": {"name": "文登收费站收费入口广场", "lat": 37.16824403596068, "lng": 122.00740294508556}, "G00183701600302010": {"name": "文登收费站收费出口广场", "lat": 37.16804042012646, "lng": 122.0074754789736}, "G00183701600302016": {"name": "文登收费站收费出口广场", "lat": 37.16804042012646, "lng": 122.0074754789736}, "G00183701600401010": {"name": "威海南海收费站收费入口广场", "lat": 37.05711014049736, "lng": 121.90672753663826}, "G00183701600401017": {"name": "威海南海收费站收费入口广场", "lat": 37.05710868066405, "lng": 121.90673070090412}, "G00183701600402010": {"name": "威海南海收费站收费出口广场", "lat": 37.05701807845986, "lng": 121.9069746591058}, "G00183701600402018": {"name": "威海南海收费站收费出口广场", "lat": 37.05701807845986, "lng": 121.9069746591058}, "G00183701600501010": {"name": "南黄收费站收费入口广场", "lat": 36.96908457169077, "lng": 121.79398011957616}, "G00183701600501019": {"name": "南黄收费站收费入口广场", "lat": 36.96908229677682, "lng": 121.79397301828747}, "G00183701600502010": {"name": "南黄收费站收费出口广场", "lat": 36.96896863115427, "lng": 121.793948058421}, "G00183701600601010": {"name": "乳山东收费站收费入口广场", "lat": 36.910890286299775, "lng": 121.5927213901702}, "G00183701600602010": {"name": "乳山东收费站收费出口广场", "lat": 36.91077232635084, "lng": 121.59272160495578}, "G00203700100101010": {"name": "峡山收费站入口广场", "lat": 36.631698399006666, "lng": 119.47136606096484}, "G00203700100102010": {"name": "峡山收费站出口广场", "lat": 36.63157482823084, "lng": 119.4710143469372}, "G00203700100201010": {"name": "高密收费站辅站入口广场", "lat": 36.46647628846608, "lng": 119.78742055395448}, "G00203700100202010": {"name": "高密收费站辅站出口广场", "lat": 36.46653709323451, "lng": 119.7875440117358}, "G00203700100301010": {"name": "胶州收费站入口广场", "lat": 36.40661409210309, "lng": 119.98913763558195}, "G00203700100302010": {"name": "胶州收费站出口广场", "lat": 36.40631028799909, "lng": 119.98899818007366}, "G00203700100401010": {"name": "蓝村收费站辅站入口广场", "lat": 36.42322746663949, "lng": 120.176131684021}, "G00203700100402010": {"name": "蓝村收费站辅站出口广场", "lat": 36.42334629990242, "lng": 120.17617649996455}, "G00203700100501010": {"name": "即墨收费站辅站入口广场", "lat": 36.223523, "lng": 120.172323}, "G00203700100502010": {"name": "即墨收费站辅站出口广场", "lat": 36.223523, "lng": 120.172323}, "G00203700100601010": {"name": "青岛收费站入口广场", "lat": 36.5153, "lng": 117.3005}, "G00203700100602010": {"name": "青岛收费站出口广场", "lat": 36.5153, "lng": 117.3005}, "G00203700100701010": {"name": "高密西出口收费广场", "lat": 36.51949060447082, "lng": 119.65780238507696}, "G00203700100702020": {"name": "高密西入口收费广场", "lat": 36.519499834417616, "lng": 119.65789784848336}, "G00203700100801010": {"name": "青岛站入口收费广场", "lat": 36.389088722388, "lng": 120.2829100273016}, "G00203700100802020": {"name": "青岛站出口收费广场", "lat": 36.38878643429384, "lng": 120.28247112040168}, "G00203700300101010": {"name": "青州西收费站入口广场", "lat": 36.81360326260392, "lng": 118.50044887457052}, "G00203700300102010": {"name": "青州西收费站出口广场", "lat": 36.81374964976034, "lng": 118.5004347607852}, "G00203700300201010": {"name": "青州东收费站入口广场", "lat": 36.78685931757377, "lng": 118.6204972229914}, "G00203700300202010": {"name": "青州东收费站出口广场", "lat": 36.78681917708728, "lng": 118.62058450881456}, "G00203700300301010": {"name": "寿光收费站辅站入口广场", "lat": 36.76313991736524, "lng": 118.72857463273716}, "G00203700300302010": {"name": "寿光收费站辅站出口广场", "lat": 36.76305543715176, "lng": 118.72874892442256}, "G00203700300401010": {"name": "昌乐收费站辅站入口广场", "lat": 36.75706918846758, "lng": 118.85420770173828}, "G00203700300402010": {"name": "昌乐收费站辅站出口广场", "lat": 36.757217014799295, "lng": 118.854286841761}, "G00203700300501010": {"name": "潍坊西收费站入口广场", "lat": 36.747426018679946, "lng": 119.03443123671762}, "G00203700300502010": {"name": "潍坊西收费站出口广场", "lat": 36.74717946435898, "lng": 119.03436681589316}, "G00203700300601010": {"name": "潍坊收费站辅站入口广场", "lat": 36.74931338607283, "lng": 119.16295373861536}, "G00203700300602010": {"name": "潍坊收费站辅站出口广场", "lat": 36.74915725424678, "lng": 119.16286340782924}, "G00203700300701010": {"name": "潍坊东收费站辅站入口广场", "lat": 36.71544130836951, "lng": 119.24576416078752}, "G00203700300702010": {"name": "潍坊东收费站辅站出口广场", "lat": 36.71520023577952, "lng": 119.24570854117262}, "G00203700500101010": {"name": "邹平东入口收费广场", "lat": 36.85579533147687, "lng": 117.81859333026703}, "G00203700500102010": {"name": "邹平东出口收费广场", "lat": 36.85598286846263, "lng": 117.81864440377772}, "G00203700500201010": {"name": "周村收费站入口广场", "lat": 36.85668809559674, "lng": 117.8720655683864}, "G00203700500202010": {"name": "周村收费站出口广场", "lat": 36.85672246033148, "lng": 117.87200140641404}, "G00203700500301010": {"name": "淄博收费站入口广场", "lat": 36.85962817583963, "lng": 118.08016074333756}, "G00203700500302010": {"name": "淄博收费站出口广场", "lat": 36.8593289600594, "lng": 118.08037961285606}, "G00203700500401010": {"name": "临淄收费站入口广场", "lat": 36.85314684708679, "lng": 118.30259034450452}, "G00203700500402010": {"name": "临淄收费站出口广场", "lat": 36.85251536366325, "lng": 118.30244300972085}, "G00203700500501010": {"name": "邹平西入口收费广场", "lat": 36.88298154251562, "lng": 117.69276954700332}, "G00203700500502020": {"name": "邹平西出口收费广场", "lat": 36.88305198563947, "lng": 117.69277939957652}, "G00203700500601010": {"name": "淄博高新区入口收费广场", "lat": 36.85663485903464, "lng": 118.1351858829053}, "G00203700500602020": {"name": "淄博高新区出口收费广场", "lat": 36.85658557518877, "lng": 118.13502385188649}, "G00203700500701010": {"name": "临淄东入口收费广场", "lat": 36.83361130320007, "lng": 118.3988892061863}, "G00203700500702020": {"name": "临淄东出口收费广场", "lat": 36.834110114672455, "lng": 118.39856953218566}, "G00203700600101010": {"name": "济南收费站内外广场（主站）", "lat": 36.73068115920394, "lng": 117.04788042961545}, "G00203700600102010": {"name": "济南收费站内外广场（副站）", "lat": 36.72486020355886, "lng": 117.03669591960131}, "G00203700600301010": {"name": "章丘入口收费广场", "lat": 36.8560145030954, "lng": 117.49774507653436}, "G00203700600302010": {"name": "章丘出口收费广场", "lat": 36.85569586576642, "lng": 117.49779406180204}, "G00203700600401010": {"name": "章丘西入口收费广场", "lat": 36.82252827636052, "lng": 117.41899170853114}, "G00203700600402020": {"name": "章丘西出口收费广场", "lat": 36.82237163096116, "lng": 117.41900342921868}, "G00203700600501010": {"name": "临港入口收费广场", "lat": 36.78004379725645, "lng": 117.2438143088971}, "G00203700600502020": {"name": "临港出口收费广场", "lat": 36.78011709018183, "lng": 117.24380226828856}, "G00203700600601010": {"name": "东客站入口收费广场", "lat": 36.75945879349861, "lng": 117.14116382235366}, "G00203700600602020": {"name": "东客站出口收费广场", "lat": 36.75945819699649, "lng": 117.14123164396548}, "G00203700700101010": {"name": "禹城南收费站入口广场", "lat": 36.87394327884789, "lng": 116.6513486414352}, "G00203700700102010": {"name": "禹城南收费站出口广场", "lat": 36.87383864845573, "lng": 116.65137818199112}, "G00203700700201010": {"name": "高唐东收费站入口广场", "lat": 36.89860503066045, "lng": 116.37715567334718}, "G00203700700202010": {"name": "高唐东收费站出口广场", "lat": 36.89849993371807, "lng": 116.37712063329828}, "G00203700700301010": {"name": "高唐收费站入口广场", "lat": 36.91577215173484, "lng": 116.2339785420644}, "G00203700700302010": {"name": "高唐收费站出口广场", "lat": 36.91566722823103, "lng": 116.23390993083616}, "G00203700700401010": {"name": "夏津收费站入口广场", "lat": 37.00403981360073, "lng": 116.01934706683224}, "G00203700700402010": {"name": "夏津收费站出口广场", "lat": 37.004109736394895, "lng": 116.01923527562349}, "G00203700700501010": {"name": "青银鲁冀收费站入口广场", "lat": 37.37, "lng": 115.5052}, "G00203700700504010": {"name": "青银鲁冀收费站出口广场", "lat": 37.37, "lng": 115.5052}, "G00223700100101010": {"name": "孟疃收费站入口广场", "lat": 36.04628790405282, "lng": 119.05620844892404}, "G00223700100102010": {"name": "孟疃收费站出口广场", "lat": 36.04611606188941, "lng": 119.0561073801234}, "G00223700100201010": {"name": "诸城西收费站入口广场", "lat": 36.057682668665805, "lng": 119.2171636880264}, "G00223700100202010": {"name": "诸城西收费站出口广场", "lat": 36.05781029715759, "lng": 119.21699759558092}, "G00223700100301010": {"name": "诸城收费站入口广场", "lat": 36.07977642910812, "lng": 119.40226160647909}, "G00223700100302010": {"name": "诸城收费站出口广场", "lat": 36.07948618473773, "lng": 119.40215563892944}, "G00223700100401010": {"name": "诸城东收费站入口广场", "lat": 36.06626032399299, "lng": 119.47657383955034}, "G00223700100402010": {"name": "诸城东收费站出口广场", "lat": 36.06639762858879, "lng": 119.47652608917606}, "G00223700100501010": {"name": "辛兴收费站入口广场", "lat": 36.06020834947185, "lng": 119.58978119537002}, "G00223700100502010": {"name": "辛兴收费站出口广场", "lat": 36.06038555153526, "lng": 119.58979702296035}, "G00223700200101010": {"name": "诸葛收费站入口广场", "lat": 36.03391726741263, "lng": 118.54891962946508}, "G00223700200102010": {"name": "诸葛收费站出口广场", "lat": 36.03405444226155, "lng": 118.54881052297802}, "G00223700200201010": {"name": "杨庄收费站入口广场", "lat": 36.03792079463237, "lng": 118.8671517813164}, "G00223700200202010": {"name": "杨庄收费站出口广场", "lat": 36.03811730944324, "lng": 118.86721566791977}, "G00223700300101010": {"name": "鲁村收费站入口广场", "lat": 36.1949100822885, "lng": 117.9885190549619}, "G00223700300102010": {"name": "鲁村收费站出口广场", "lat": 36.19491159148953, "lng": 117.98836711786676}, "G00223700300201010": {"name": "沂源收费站入口广场", "lat": 36.15564780666669, "lng": 118.13313883432386}, "G00223700300202010": {"name": "沂源收费站出口广场", "lat": 36.15573871605352, "lng": 118.13334054721486}, "G00223700300301010": {"name": "沂源东收费站入口广场", "lat": 36.18001708249432, "lng": 118.23593419537002}, "G00223700300302010": {"name": "沂源东收费站出口广场", "lat": 36.18008916857845, "lng": 118.23610594990085}, "G00223700300401010": {"name": "张家坡收费站入口广场", "lat": 36.08065902010563, "lng": 118.4292033615732}, "G00223700300402010": {"name": "张家坡收费站出口广场", "lat": 36.08078909835173, "lng": 118.42918969688124}, "G00223700400101010": {"name": "辛庄收费站入口广场", "lat": 36.23661935606577, "lng": 117.82873465942257}, "G00223700400102010": {"name": "辛庄收费站出口广场", "lat": 36.23689039160017, "lng": 117.82892092869936}, "G00223700500401010": {"name": "青岛西外广场", "lat": 36.24011573426773, "lng": 120.34072104754858}, "G00223700500402010": {"name": "青岛西内广场", "lat": 36.239754198802686, "lng": 120.340715594497}, "G00223700500501010": {"name": "青岛高新主站外广场", "lat": 36.23167585958008, "lng": 120.2574403271663}, "G00223700500501030": {"name": "青岛高新分站外广场", "lat": 36.23166997441393, "lng": 120.2574421998036}, "G00223700500502010": {"name": "青岛高新主站内广场", "lat": 36.23164062071638, "lng": 120.2573224434274}, "G00223700500502040": {"name": "青岛高新分站内广场", "lat": 36.23164753744288, "lng": 120.25732299047766}, "G00223700500601010": {"name": "河套主站外广场", "lat": 36.23955079761636, "lng": 120.16274924462492}, "G00223700500601030": {"name": "河套分站外广场", "lat": 36.24302391, "lng": 120.17578492}, "G00223700500602010": {"name": "河套主站内广场", "lat": 36.239496409367135, "lng": 120.16266569545742}, "G00223700500602040": {"name": "河套分站内广场", "lat": 36.24273444128899, "lng": 120.16444587140658}, "G00223700500701010": {"name": "营海主站外广场", "lat": 36.226053376338285, "lng": 120.07494976997312}, "G00223700500702010": {"name": "营海主站内广场", "lat": 36.22621205154197, "lng": 120.07509384213384}, "G00223700500702030": {"name": "营海分站内广场", "lat": 36.226210475610486, "lng": 120.07509389715474}, "G00223700500801010": {"name": "红石崖主站外广场", "lat": 36.08816952034182, "lng": 120.070345383168}, "G00223700500801030": {"name": "红石崖分站外广场", "lat": 36.09091815406704, "lng": 120.07279673445868}, "G00223700500802010": {"name": "红石崖主站内广场", "lat": 36.08841650353307, "lng": 120.07034682543062}, "G00223700500802040": {"name": "红石崖分站内广场", "lat": 36.08842309929544, "lng": 120.0703449120334}, "G00223700501001010": {"name": "黄岛东外广场", "lat": 36.06567346709001, "lng": 120.14475067130076}, "G00223700501002010": {"name": "黄岛东内广场", "lat": 36.06539427325954, "lng": 120.14453116576271}, "G00223700600101010": {"name": "里岔收费站入口广场", "lat": 36.051508416389765, "lng": 119.79751242838734}, "G00223700600102010": {"name": "里岔收费站入口广场", "lat": 36.05162926856218, "lng": 119.79746338697362}, "G00223700600201010": {"name": "黄山收费站入口广场", "lat": 36.046134941142185, "lng": 119.99737314960277}, "G00223700600202010": {"name": "黄山收费站出口广场", "lat": 36.046278653033, "lng": 119.99730326218015}, "G00223700700101010": {"name": "岱岳入口收费广场", "lat": 36.13994279, "lng": 116.97649575}, "G00223700700102020": {"name": "岱岳出口收费广场", "lat": 36.13987575832904, "lng": 116.97646167574868}, "G00223700700201010": {"name": "肥城南入口收费广场", "lat": 36.121569, "lng": 116.77983689}, "G00223700700202020": {"name": "肥城南出口收费广场", "lat": 36.12149998688941, "lng": 116.77983651017868}, "G00223700700301010": {"name": "桃园入口收费广场", "lat": 36.12807285, "lng": 116.62466393}, "G00223700700302020": {"name": "桃园出口收费广场", "lat": 36.12819748704192, "lng": 116.62473632308554}, "G00223700700401010": {"name": "肥城西入口收费广场", "lat": 36.14001905, "lng": 116.57057672}, "G00223700700402020": {"name": "肥城西出口收费广场", "lat": 36.140073171705296, "lng": 116.5706035538096}, "G00223700700501010": {"name": "平阴孔村入口收费广场", "lat": 36.15892561, "lng": 116.47491078}, "G00223700700502020": {"name": "平阴孔村出口收费广场", "lat": 36.158972811857765, "lng": 116.47481061881496}, "G00223700700601010": {"name": "平阴玫瑰入口收费广场", "lat": 36.22303252, "lng": 116.34785434}, "G00223700700602020": {"name": "平阴玫瑰出口收费广场", "lat": 36.22307816973043, "lng": 116.34789870045428}, "G00223700700701010": {"name": "泰肥收费站入口外广场", "lat": 36.15175509, "lng": 117.02941921}, "G00223700700702010": {"name": "泰肥收费站出口内广场", "lat": 36.15188329147904, "lng": 117.02950357346904}, "G00223700800104010": {"name": "东阿收费站广场", "lat": 36.29312879, "lng": 116.2132601}, "G00223700800204010": {"name": "李海务收费站广场", "lat": 36.31762145, "lng": 116.01154026}, "G00223700800304010": {"name": "朱老庄收费站广场", "lat": 36.34420477, "lng": 115.93401985}, "G00223700800404010": {"name": "河店收费站广场", "lat": 36.360409950000005, "lng": 115.69251891}, "G00223700800504010": {"name": "魏庄收费站广场", "lat": 36.34144972, "lng": 115.57191684}, "G00223700800604010": {"name": "青兰鲁冀收费站广场", "lat": 36.331497, "lng": 115.335566}, "G00223700900101010": {"name": "钢城西收费站入口广场", "lat": 36.13863, "lng": 117.699766}, "G00223700900102010": {"name": "钢城西收费站出口广场", "lat": 36.13863, "lng": 117.699766}, "G00223700900201010": {"name": "高庄收费站入口广场", "lat": 36.160093, "lng": 117.593491}, "G00223700900202010": {"name": "高庄收费站出口广场", "lat": 36.160093, "lng": 117.593491}, "G00223701000101010": {"name": "角峪收费站入口广场", "lat": 36.157292, "lng": 117.435066}, "G00223701000102010": {"name": "角峪收费站出口广场", "lat": 36.157292, "lng": 117.435066}, "G00223701000201010": {"name": "泰安东收费站入口广场", "lat": 36.148736, "lng": 117.1713}, "G00223701000202010": {"name": "泰安东收费站出口广场", "lat": 36.148736, "lng": 117.1713}, "G00223701000301010": {"name": "泰安南（主站）收费站入口广场", "lat": 36.14453, "lng": 117.098124}, "G00223701000301020": {"name": "泰安南（辅站）收费站入口广场", "lat": 36.14453, "lng": 117.098124}, "G00223701000302010": {"name": "泰安南（主站）收费站出口广场", "lat": 36.14453, "lng": 117.098124}, "G00223701000302020": {"name": "泰安南（辅站）收费站出口广场", "lat": 36.14453, "lng": 117.098124}, "G00253700100101010": {"name": "大王入口广场", "lat": 36.97528076, "lng": 118.54111029}, "G00253700100102010": {"name": "大王出口广场", "lat": 36.97527582712056, "lng": 118.5407863468635}, "G00253700100201010": {"name": "阳河入口广场", "lat": 36.91721381, "lng": 118.54736816}, "G00253700100202010": {"name": "阳河出口广场", "lat": 36.917115347401165, "lng": 118.54736423826164}, "G00253700100401010": {"name": "何官主站入口收费广场", "lat": 36.82587003041637, "lng": 118.55152257928538}, "G00253700100401030": {"name": "何官辅站入口收费广场", "lat": 36.82610006626949, "lng": 118.5439472453166}, "G00253700100402020": {"name": "何官主站出口收费广场", "lat": 36.82581232187516, "lng": 118.55152334347537}, "G00253700100402040": {"name": "何官辅站出口收费广场", "lat": 36.82614918076325, "lng": 118.54396195213612}, "G00253700200101010": {"name": "青州北收费站入口广场", "lat": 36.78180655, "lng": 118.53911206}, "G00253700200102010": {"name": "青州北收费站出口广场", "lat": 36.78197066044969, "lng": 118.53903200520745}, "G00253700200201010": {"name": "青州收费站入口广场", "lat": 36.72419741056517, "lng": 118.57399452776625}, "G00253700200202010": {"name": "青州收费站出口广场", "lat": 36.72408368868122, "lng": 118.57376763121285}, "G00253700200301010": {"name": "青州南收费站入口广场", "lat": 36.62352918, "lng": 118.59378309}, "G00253700200302010": {"name": "青州南收费站出口广场", "lat": 36.62350175857755, "lng": 118.59407938264562}, "G00253700200401010": {"name": "临朐收费站入口广场", "lat": 36.51520155, "lng": 118.62018229}, "G00253700200402010": {"name": "临朐收费站出口广场", "lat": 36.51531110163623, "lng": 118.61993262858232}, "G00253700200501010": {"name": "临朐南站入口广场", "lat": 36.41935526, "lng": 118.64239136}, "G00253700200502010": {"name": "临朐南站出口广场", "lat": 36.41939940643756, "lng": 118.64261343876302}, "G00253700200601010": {"name": "沂山收费站入口广场", "lat": 36.24669189, "lng": 118.71335259}, "G00253700200602010": {"name": "沂山收费站出口广场", "lat": 36.24677830261773, "lng": 118.71349436907796}, "G00253700300101010": {"name": "沂水北收费站入口广场", "lat": 35.98602674, "lng": 118.72258056}, "G00253700300102010": {"name": "沂水北收费站出口广场", "lat": 35.98625329014554, "lng": 118.72256607106434}, "G00253700300201010": {"name": "沂水收费站入口广场", "lat": 35.80462456, "lng": 118.67339084}, "G00253700300202010": {"name": "沂水收费站出口广场", "lat": 35.804823971665655, "lng": 118.6733578400245}, "G00253700300301010": {"name": "沂水南收费站入口广场", "lat": 35.695815700000004, "lng": 118.69829101}, "G00253700300302010": {"name": "沂水南收费站出口广场", "lat": 35.695859266898466, "lng": 118.6985349331123}, "G00253700300401010": {"name": "沂南北收费站入口广场", "lat": 35.58744958, "lng": 118.66479214}, "G00253700300402010": {"name": "沂南北收费站出口广场", "lat": 35.58744017810247, "lng": 118.66461582215264}, "G00253700300501010": {"name": "沂南东收费站入口广场", "lat": 35.505685220000004, "lng": 118.64757839}, "G00253700300502010": {"name": "沂南东收费站出口广场", "lat": 35.50582979035114, "lng": 118.64763334738682}, "G00253700400101010": {"name": "河东收费站入口广场", "lat": 35.231773000000004, "lng": 118.62529405}, "G00253700400102010": {"name": "河东收费站出口广场", "lat": 35.231896879819146, "lng": 118.62544928362152}, "G00253700400201010": {"name": "临沂东收费站入口广场", "lat": 35.12360026, "lng": 118.60493516}, "G00253700400202010": {"name": "临沂东收费站出口广场", "lat": 35.123861655987255, "lng": 118.60471547660012}, "G00253700400301010": {"name": "临沭北收费站入口广场", "lat": 35.04457845, "lng": 118.66828233}, "G00253700400302010": {"name": "临沭北收费站出口广场", "lat": 35.04437354723474, "lng": 118.66816400496776}, "G00253700400401010": {"name": "临沭收费站入口广场", "lat": 34.91725314, "lng": 118.73979519}, "G00253700400402010": {"name": "临沭收费站出口广场", "lat": 34.917428941251146, "lng": 118.73974965974656}, "G00253700400501010": {"name": "长深鲁苏省界收费站入口广场", "lat": 34.877186, "lng": 118.796747}, "G00253700400502020": {"name": "长深鲁苏省界收费站出口广场", "lat": 34.877186, "lng": 118.796747}, "G00253700500101010": {"name": "博兴收费站入口广场", "lat": 37.23124339, "lng": 118.08796083}, "G00253700500102020": {"name": "博兴收费站出口广场", "lat": 37.23118087527156, "lng": 118.08796094238524}, "G00253700500201010": {"name": "博兴北收费站入口广场", "lat": 37.23791727, "lng": 118.22097744}, "G00253700500202020": {"name": "博兴北收费站出口广场", "lat": 37.238015102750055, "lng": 118.22093072878856}, "G00253700500301010": {"name": "广饶西收费站入口广场", "lat": 37.22940538, "lng": 118.41655177}, "G00253700500302020": {"name": "广饶西收费站出口广场", "lat": 37.22948067518723, "lng": 118.41656786168534}, "G00353700100101010": {"name": "长清入口广场", "lat": 36.48164171, "lng": 116.72801459}, "G00353700100102010": {"name": "长清出口广场", "lat": 36.48158164675158, "lng": 116.72807728828036}, "G00353700100201010": {"name": "孝里入口广场", "lat": 36.38667046, "lng": 116.6382175}, "G00353700100202010": {"name": "孝里出口广场", "lat": 36.38674829435996, "lng": 116.6382647051355}, "G00353700100301010": {"name": "平阴入口广场", "lat": 36.27679199, "lng": 116.48180338}, "G00353700100302010": {"name": "平阴出口广场", "lat": 36.27689877277709, "lng": 116.48203412609762}, "G00353700100401010": {"name": "平阴南入口广场", "lat": 36.1008808, "lng": 116.44586208}, "G00353700100402010": {"name": "平阴南出口广场", "lat": 36.10081951792922, "lng": 116.44584536550784}, "G00353700100501010": {"name": "东平入口广场", "lat": 35.93021945, "lng": 116.41510362}, "G00353700100502010": {"name": "东平出口广场", "lat": 35.93006138095328, "lng": 116.41482234319328}, "G00353700100601010": {"name": "梁山入口广场", "lat": 35.68425428, "lng": 116.222260699999}, "G00353700100602010": {"name": "梁山出口广场", "lat": 35.68445341384654, "lng": 116.22210527182376}, "G00353700100701010": {"name": "嘉祥西入口广场", "lat": 35.61017171, "lng": 116.142076}, "G00353700100702010": {"name": "嘉祥西出口广场", "lat": 35.61030681668993, "lng": 116.14199705848338}, "G00353700100801010": {"name": "长清大学城入口广场", "lat": 36.581004, "lng": 116.815864}, "G00353700100802010": {"name": "长清大学城出口广场", "lat": 36.580236, "lng": 116.814708}, "G00353700200101010": {"name": "菏泽新北入口广场", "lat": 35.27844563, "lng": 115.66407606}, "G00353700200102020": {"name": "菏泽新北出口广场", "lat": 35.27852492266095, "lng": 115.66388002920836}, "G00353700200201010": {"name": "菏泽新东入口广场", "lat": 35.21525716, "lng": 115.6645657}, "G00353700200202020": {"name": "菏泽新东出口广场", "lat": 35.21527068405207, "lng": 115.66470441960156}, "G00353700200301010": {"name": "定陶入口广场", "lat": 35.03547417, "lng": 115.64340874}, "G00353700200302020": {"name": "定陶出口广场", "lat": 35.03545536941898, "lng": 115.64362961865196}, "G00353700200401010": {"name": "古营集入口广场", "lat": 34.93849148, "lng": 115.64139377}, "G00353700200402020": {"name": "古营集出口广场", "lat": 34.93845408099125, "lng": 115.64121705423436}, "G00353700200501010": {"name": "曹县入口广场", "lat": 34.77872775, "lng": 115.64824462}, "G00353700200502020": {"name": "曹县出口广场", "lat": 34.77883158563415, "lng": 115.64808657962402}, "G00353700200601010": {"name": "仵楼入口广场", "lat": 34.61231255, "lng": 115.67236762}, "G00353700200602020": {"name": "仵楼出口广场", "lat": 34.61227804865051, "lng": 115.6723753611979}, "G00353700200701010": {"name": "济广鲁豫入口广场", "lat": 34.33219, "lng": 115.41024}, "G00353700200701020": {"name": "济广鲁豫出口广场", "lat": 34.33219, "lng": 115.41024}, "G00353700300101010": {"name": "郓城南收费站入口广场", "lat": 35.458377, "lng": 116.037845}, "G00353700300102010": {"name": "郓城南收费站出口广场", "lat": 35.458401, "lng": 116.037462}, "G00353700300102020": {"name": "郓城南收费站出口广场", "lat": 35.45842262749635, "lng": 116.03745658266882}, "G00353700300201010": {"name": "郓城收费站入口广场", "lat": 35.414239, "lng": 115.83549}, "G00353700300202010": {"name": "郓城收费站出口广场", "lat": 35.414132, "lng": 115.83564}, "G00353700300301010": {"name": "菏泽东收费站入口广场", "lat": 35.29070882, "lng": 115.57400851}, "G00353700300302010": {"name": "菏泽东收费站出口广场", "lat": 35.29081625766817, "lng": 115.57386212369369}, "G00353700300401010": {"name": "菏泽收费站入口广场", "lat": 35.28983615, "lng": 115.51416259}, "G00353700300402010": {"name": "菏泽收费站出口广场", "lat": 35.28999522463812, "lng": 115.51416942579938}, "G00353700300501010": {"name": "菏泽西收费站入口广场", "lat": 35.29117268, "lng": 115.41541558}, "G00353700300502010": {"name": "菏泽西收费站出口广场", "lat": 35.29113375088231, "lng": 115.41543406935745}, "G00353700300601010": {"name": "东明收费站入口广场", "lat": 35.30734752403964, "lng": 115.13052015398048}, "G00353700300602010": {"name": "东明收费站出口广场", "lat": 35.307515465034754, "lng": 115.13057763776789}, "G00353700400101010": {"name": "郓城南收费站入口广场", "lat": 35.458465, "lng": 116.037878}, "G00353700400102020": {"name": "郓城南收费站出口广场", "lat": 35.458465, "lng": 116.037878}, "G00353700400201010": {"name": "郓城收费站入口广场", "lat": 35.413324, "lng": 115.834856}, "G00353700400202020": {"name": "郓城收费站出口广场", "lat": 35.413324, "lng": 115.834856}, "G003W3700100104010": {"name": "出入口收费广场", "lat": 115.569802, "lng": 35.860064}, "G003W3700200101020": {"name": "德商鲁冀入口", "lat": 37.37395301395868, "lng": 116.0391630847605}, "G003W3700200102010": {"name": "德商鲁冀出口", "lat": 37.34739924050094, "lng": 116.03462745104386}, "G003W3700200201080": {"name": "武城西入口", "lat": 37.20049809, "lng": 116.01706819}, "G003W3700200202070": {"name": "武城西出口", "lat": 37.200472725503815, "lng": 116.01723039581404}, "G003W3700200301060": {"name": "武城北入口", "lat": 37.342046839655694, "lng": 116.08753565474116}, "G003W3700200302050": {"name": "武城北出口", "lat": 37.342057420673626, "lng": 116.08743254593716}, "G003W3700200401040": {"name": "武城东入口", "lat": 37.33453383797922, "lng": 116.2749952300022}, "G003W3700200402030": {"name": "武城东出口", "lat": 37.334385540906936, "lng": 116.27496595875084}, "G003W3700200501010": {"name": "四女寺入口收费广场", "lat": 37.34663811114923, "lng": 116.22327711603263}, "G003W3700200502020": {"name": "四女寺出口收费广场", "lat": 37.34665591238128, "lng": 116.22323447591616}, "G003W3700300101020": {"name": "聊城北入口收费广场", "lat": 36.63915221717282, "lng": 115.8600846627881}, "G003W3700300102010": {"name": "聊城北出口收费广场", "lat": 36.63899471654608, "lng": 115.86028620008084}, "G003W3700300201040": {"name": "临清东入口收费广场", "lat": 36.79960921933716, "lng": 115.89475176034622}, "G003W3700300202030": {"name": "临清东出口收费广场", "lat": 36.79956457897737, "lng": 115.89496265347864}, "G003W3700300301050": {"name": "夏津西入口收费广场", "lat": 36.96790800020261, "lng": 115.94133097668646}, "G003W3700300302060": {"name": "夏津西出口收费广场", "lat": 36.96798179820938, "lng": 115.94102717827354}, "G003W3700400101010": {"name": "聊城南收费站入口广场", "lat": 36.39360102268648, "lng": 115.87936083095202}, "G003W3700400102010": {"name": "聊城南收费站出口广场", "lat": 36.39329080041634, "lng": 115.87946949015704}, "G003W3700400201010": {"name": "莘县北收费站入口广场", "lat": 36.26858358404391, "lng": 115.75121822951655}, "G003W3700400202010": {"name": "莘县北收费站出口广场", "lat": 36.26866876414344, "lng": 115.75092828515578}, "G003W3700400301010": {"name": "莘县收费站入口广场", "lat": 36.19217578352156, "lng": 115.70421491547596}, "G003W3700400302010": {"name": "莘县收费站出口广场", "lat": 36.19201606851625, "lng": 115.70432734581294}, "G003W3700400401010": {"name": "莘县南收费站入口广场", "lat": 36.08527038434454, "lng": 115.65014413415952}, "G003W3700400402010": {"name": "莘县南收费站出口广场", "lat": 36.08525065512384, "lng": 115.64989201802656}, "G003W3700400501010": {"name": "莘县古城收费站入口广场", "lat": 35.932560782806064, "lng": 115.61028420702677}, "G003W3700400502010": {"name": "莘县古城收费站出口广场", "lat": 35.93255780969496, "lng": 115.61009506838694}, "G003W3700400601010": {"name": "德商鲁豫收费站入口广场", "lat": 35.818358, "lng": 115.536047}, "G003W3700400602010": {"name": "德商鲁豫收费站出口广场", "lat": 35.818358, "lng": 115.536047}, "G003W3700400701010": {"name": "聊城西收费站入口广场", "lat": 36.46564689377827, "lng": 115.90069106896767}, "G003W3700400702010": {"name": "聊城西收费站出口广场", "lat": 36.46570063468954, "lng": 115.90047976600334}, "G003W3700600101010": {"name": "鄄城北入口广场", "lat": 35.67818325276184, "lng": 115.55037784962958}, "G003W3700600102010": {"name": "鄄城北出口广场", "lat": 35.67824603035132, "lng": 115.55053528674088}, "G003W3700600201010": {"name": "鄄城入口广场", "lat": 35.55110180088366, "lng": 115.59626370552256}, "G003W3700600202010": {"name": "鄄城出口广场", "lat": 35.55126429910932, "lng": 115.596445033733}, "G003W3700600301010": {"name": "鄄城南入口广场", "lat": 35.450963815039785, "lng": 115.63383712242091}, "G003W3700600302010": {"name": "鄄城南出口广场", "lat": 35.450733805012504, "lng": 115.63396208338976}, "G003W3700600401010": {"name": "菏泽北入口广场", "lat": 35.377192562581016, "lng": 115.63743926831911}, "G003W3700600402010": {"name": "菏泽北出口广场", "lat": 35.37705931192828, "lng": 115.63708164743409}, "G01043700100103010": {"name": "泰曲路收费站", "lat": 35.93340026682972, "lng": 117.08437476338815}, "G01043700100103020": {"name": "泰曲路收费站", "lat": 35.93339906031261, "lng": 117.08426747502756}, "G01113700100101010": {"name": "无棣埕口收费站入口广场", "lat": 38.149247, "lng": 117.791609}, "G01113700100102010": {"name": "无棣埕口收费站出口广场", "lat": 38.149247, "lng": 117.791609}, "G01113700100201010": {"name": "滨港收费站入口广场", "lat": 38.046879, "lng": 117.81571}, "G01113700100202010": {"name": "滨港收费站出口广场", "lat": 38.046879, "lng": 117.81571}, "G01113700100301010": {"name": "无棣西小王收费站入口广场", "lat": 37.885613, "lng": 117.911951}, "G01113700100302010": {"name": "无棣西小王收费站出口广场", "lat": 37.885613, "lng": 117.911951}, "G01113700100401010": {"name": "沾化北收费站入口广场", "lat": 37.811244, "lng": 117.982724}, "G01113700100402010": {"name": "沾化北收费站出口广场", "lat": 37.811244, "lng": 117.982724}, "G02053700100103010": {"name": "滨州市黄河公铁大桥收费广场", "lat": 37.33025312, "lng": 118.08361408}, "G02053700100103020": {"name": "滨州市黄河公铁大桥收费广场", "lat": 37.33052611, "lng": 118.08321443}, "G02053700200103010": {"name": "临沂市玉平沂河大桥收费站", "lat": 35.24360633, "lng": 118.48296856}, "G02053700200103020": {"name": "临沂市玉平沂河大桥收费站", "lat": 35.24378062, "lng": 118.48300365}, "G02063700100103010": {"name": "国道206莱州收费站", "lat": 37.12558983176038, "lng": 119.86072202446528}, "G02063700100103020": {"name": "国道206莱州收费站", "lat": 37.12575616434974, "lng": 119.86069520237513}, "G02203700100103010": {"name": "利津黄河公路大桥收费站广场", "lat": 37.48682610705258, "lng": 118.25914827731856}, "G02203700100103020": {"name": "利津黄河公路大桥收费站广场", "lat": 37.48688059190604, "lng": 118.25912681964644}, "G02203700200104010": {"name": "济南凤凰黄河公路大桥", "lat": 36.801768, "lng": 117.150433}, "G03083700100103010": {"name": "东广场", "lat": 36.93516578, "lng": 117.18318143}, "G03083700100103020": {"name": "西广场", "lat": 36.93503919, "lng": 117.18314124}, "G03093700100103010": {"name": "济南建邦黄河公路大桥收费站北收费广场", "lat": 36.75049654045941, "lng": 116.93257007056424}, "G03093700100103020": {"name": "济南建邦黄河公路大桥收费站南收费广场", "lat": 36.7505315631504, "lng": 116.93288001468068}, "G03093700200104010": {"name": "济泺路穿黄隧道收费站广场", "lat": 36.751111, "lng": 116.988056}, "G03213700700101010": {"name": "王律庄收费站入口广场", "lat": 37.311918, "lng": 116.379671}, "G03213700700102010": {"name": "王律庄收费站出口广场", "lat": 37.311918, "lng": 116.379671}, "G03213700900101010": {"name": "巨野西收费站入口广场", "lat": 35.38573196804366, "lng": 116.01640573176272}, "G03213700900102020": {"name": "巨野西收费站出口广场", "lat": 35.385687387199624, "lng": 116.01643870220964}, "G03213700900201010": {"name": "章缝收费站入口广场", "lat": 35.24095678092185, "lng": 116.03203013415956}, "G03213700900202020": {"name": "章缝收费站出口广场", "lat": 35.24097101933698, "lng": 116.0321049375529}, "G03213700900301010": {"name": "大田集收费站入口广场", "lat": 35.07221778046696, "lng": 116.00991220702676}, "G03213700900302020": {"name": "大田集收费站出口广场", "lat": 35.07222134163193, "lng": 116.01001235821026}, "G03213700900401010": {"name": "成武东收费站入口广场", "lat": 34.97458853846666, "lng": 115.98892406121048}, "G03213700900402020": {"name": "成武东收费站出口广场", "lat": 34.974194555015174, "lng": 115.98886842203196}, "G03213700900501010": {"name": "单县北收费站入口广场", "lat": 34.84380766040353, "lng": 116.02714098834326}, "G03213700900502020": {"name": "单县北收费站出口广场", "lat": 34.84385073726823, "lng": 116.02710918448916}, "G03213700900601010": {"name": "单县南收费站入口广场", "lat": 34.73675677956834, "lng": 116.05952813415958}, "G03213700900602020": {"name": "单县南收费站出口广场", "lat": 34.73670971660029, "lng": 116.05949090639557}, "G03213700900701010": {"name": "龙王庙收费站入口广场", "lat": 34.67297766177134, "lng": 116.20666727989402}, "G03213700900702020": {"name": "龙王庙收费站出口广场", "lat": 34.67307759322786, "lng": 116.20668498970294}, "G15113700100101010": {"name": "日照收费站入口广场", "lat": 35.41170840460815, "lng": 119.426669279894}, "G15113700100102010": {"name": "日照收费站出口广场", "lat": 35.411423803900675, "lng": 119.42668320895338}, "G15113700100201010": {"name": "西湖收费站入口广场", "lat": 35.49214090807919, "lng": 119.22924198834323}, "G15113700100202010": {"name": "西湖收费站出口广场", "lat": 35.49226779685175, "lng": 119.22922464654457}, "G15113700100301010": {"name": "莒县东收费站入口广场", "lat": 35.45678452935488, "lng": 118.83119491547598}, "G15113700100302010": {"name": "莒县东收费站出口广场", "lat": 35.456923379301045, "lng": 118.83119664832653}, "G15113700100401010": {"name": "莒县收费站入口广场", "lat": 35.439928529675214, "lng": 118.72014213415952}, "G15113700100402010": {"name": "莒县收费站出口广场", "lat": 35.44015353309881, "lng": 118.72015417562052}, "G15113700100501010": {"name": "龙山收费站入口广场", "lat": 35.494216781608145, "lng": 119.01887113415955}, "G15113700100502010": {"name": "龙山收费站出口广场", "lat": 35.494182915593214, "lng": 119.01915611080112}, "G15113700200101010": {"name": "沂南收费站入口广场", "lat": 35.39863165592074, "lng": 118.5033452070268}, "G15113700200102010": {"name": "沂南收费站出口广场", "lat": 35.39877197885525, "lng": 118.50330769914302}, "G15113700200201010": {"name": "费县收费站入口广场", "lat": 35.37306678127935, "lng": 117.94912613415958}, "G15113700200202010": {"name": "费县收费站出口广场", "lat": 35.373185897654665, "lng": 117.94914991951988}, "G15113700200301010": {"name": "平邑东收费站入口广场", "lat": 35.436304403874004, "lng": 117.76134527989404}, "G15113700200302010": {"name": "平邑东收费站出口广场", "lat": 35.43621405317259, "lng": 117.76147717676952}, "G15113700200401010": {"name": "平邑收费站入口广场", "lat": 35.451610403416964, "lng": 117.64425698834322}, "G15113700200402010": {"name": "平邑收费站出口广场", "lat": 35.451455515530554, "lng": 117.64430163406357}, "G15113700200501010": {"name": "高里收费站入口广场", "lat": 35.388335279989136, "lng": 118.39734684260875}, "G15113700200502010": {"name": "高里收费站出口广场", "lat": 35.388436478361896, "lng": 118.3976216382536}, "G15113700300101010": {"name": "泉林收费站入口广场", "lat": 35.49313652866353, "lng": 117.39471035276128}, "G15113700300102010": {"name": "泉林收费站出口广场", "lat": 35.493204424513806, "lng": 117.39476310571764}, "G15113700300201010": {"name": "泗水收费站入口广场", "lat": 35.552703527529374, "lng": 117.24301513415952}, "G15113700300202010": {"name": "泗水收费站出口广场", "lat": 35.55263744220312, "lng": 117.24312112261264}, "G15113700300301010": {"name": "曲阜南收费站入口广场", "lat": 35.533817654819174, "lng": 116.98433513415954}, "G15113700300302010": {"name": "曲阜南收费站出口广场", "lat": 35.53399402530853, "lng": 116.98433984961208}, "G15113700300401010": {"name": "兖州收费站入口广场", "lat": 35.514505908383256, "lng": 116.79823813415956}, "G15113700300402010": {"name": "兖州收费站出口广场", "lat": 35.51474836088309, "lng": 116.7981346123137}, "G15113700300501010": {"name": "济宁收费站入口广场", "lat": 35.52667003536759, "lng": 116.66174335276126}, "G15113700300502010": {"name": "济宁收费站出口广场", "lat": 35.52665868483133, "lng": 116.66140045897562}, "G15113700300601010": {"name": "济宁北收费站入口广场", "lat": 35.53261290862946, "lng": 116.53028313415956}, "G15113700300602010": {"name": "济宁北收费站出口广场", "lat": 35.53248826569843, "lng": 116.53029145691018}, "G15113700300701010": {"name": "济宁西收费站入口广场", "lat": 35.504019034813155, "lng": 116.43565913415956}, "G15113700300702010": {"name": "济宁西收费站出口广场", "lat": 35.504117813990035, "lng": 116.43549163946642}, "G15113700300801010": {"name": "嘉祥收费站入口广场", "lat": 35.480132655257066, "lng": 116.35434320702682}, "G15113700300802010": {"name": "嘉祥收费站出口广场", "lat": 35.48000239734799, "lng": 116.35423396543436}, "G15113700300901010": {"name": "曲阜东入口收费广场", "lat": 35.5456768363194, "lng": 117.0883252070063}, "G15113700300902020": {"name": "曲阜东出口收费广场", "lat": 35.54564471954669, "lng": 117.08837727907112}, "G15113700400101010": {"name": "日兰鲁豫入口广场", "lat": 34.5944, "lng": 115.546}, "G15113700400102010": {"name": "日兰鲁豫出口广场", "lat": 34.5944, "lng": 115.546}, "G15113700400201010": {"name": "曹县西入口广场", "lat": 35.04844150593196, "lng": 115.23834783819032}, "G15113700400202010": {"name": "曹县西出口广场", "lat": 35.04833034430176, "lng": 115.23820215076051}, "G15113700400301010": {"name": "牡丹入口广场", "lat": 35.13194238387629, "lng": 115.4216001064071}, "G15113700400302010": {"name": "牡丹出口广场", "lat": 35.13184118627642, "lng": 115.42163328435576}, "G15113700400401010": {"name": "菏泽南入口广场", "lat": 35.15169260308544, "lng": 115.5074173746444}, "G15113700400402010": {"name": "菏泽南出口广场", "lat": 35.15166710488958, "lng": 115.50767285629328}, "G15113700400501010": {"name": "菏泽新区入口广场", "lat": 35.22329660255426, "lng": 115.58842230175672}, "G15113700400502010": {"name": "菏泽新区出口广场", "lat": 35.22338069968478, "lng": 115.58832266190716}, "G18133700100101010": {"name": "乳山西收费站入口广场", "lat": 36.84792516098042, "lng": 121.4258310335399}, "G18133700100102010": {"name": "乳山西收费站出口广场", "lat": 36.8481478324024, "lng": 121.42587890891076}, "G18133700100201010": {"name": "乳山收费站北站入口广场", "lat": 36.8810803979066, "lng": 121.5405071808358}, "G18133700100201020": {"name": "乳山收费站南站入口广场", "lat": 36.87912720691166, "lng": 121.54527444512544}, "G18133700100202010": {"name": "乳山收费站北站出口广场", "lat": 36.88111178943765, "lng": 121.54074988403067}, "G18133700100202020": {"name": "乳山收费站南站出口广场", "lat": 36.87915989039463, "lng": 121.5451087839468}, "G18133700200101010": {"name": "穴坊收费站入口广场", "lat": 36.62777064577124, "lng": 120.74116191547596}, "G18133700200102010": {"name": "穴坊收费站出口广场", "lat": 36.6276803606806, "lng": 120.74126001146372}, "G18133700200201010": {"name": "羊郡收费站入口广场", "lat": 36.65746122757909, "lng": 120.82840476974155}, "G18133700200202010": {"name": "羊郡收费站出口广场", "lat": 36.65750772510657, "lng": 120.82858902805386}, "G18133700200301010": {"name": "行村收费站入口广场", "lat": 36.67341864538855, "lng": 120.91091113415952}, "G18133700200302010": {"name": "行村收费站出口广场", "lat": 36.67348698168162, "lng": 120.91095874158384}, "G18133700200401010": {"name": "辛安收费站入口广场", "lat": 36.67071936646397, "lng": 120.99953298834323}, "G18133700200402010": {"name": "辛安收费站出口广场", "lat": 36.67078347843871, "lng": 120.99940355473449}, "G18133700200501010": {"name": "海阳西收费站入口广场", "lat": 36.72794850481684, "lng": 121.12057327989406}, "G18133700200502010": {"name": "海阳西收费站出口广场", "lat": 36.72792851307304, "lng": 121.12072078887246}, "G18133700200601010": {"name": "海阳收费站北入口广场", "lat": 36.7604304761476, "lng": 121.20289653413376}, "G18133700200601020": {"name": "海阳收费站南入口广场", "lat": 36.75511264545016, "lng": 121.20747678392505}, "G18133700200602010": {"name": "海阳收费站北出口广场", "lat": 36.76062224078409, "lng": 121.203255235247}, "G18133700200602020": {"name": "海阳收费站南出口广场", "lat": 36.75496010688616, "lng": 121.20704098804354}, "G18133700200701010": {"name": "留格庄收费站入口广场", "lat": 36.77959702544862, "lng": 121.34223047023916}, "G18133700200702010": {"name": "留格庄收费站出口广场", "lat": 36.77968521126121, "lng": 121.34214997379804}, "G18133700300101010": {"name": "长直收费站入口广场", "lat": 36.46561364712734, "lng": 120.40185006121048}, "G18133700300102010": {"name": "长直收费站出口广场", "lat": 36.46564381174223, "lng": 120.40173350329772}, "G18133700300201010": {"name": "灵山收费站入口广场", "lat": 36.49361637189915, "lng": 120.47083513415954}, "G18133700300202010": {"name": "灵山收费站出口广场", "lat": 36.49368890153284, "lng": 120.47081599579953}, "G18133700300301010": {"name": "华山收费站入口广场", "lat": 36.50382664680826, "lng": 120.52389227989404}, "G18133700300302010": {"name": "华山收费站出口广场", "lat": 36.503990250223296, "lng": 120.52392507295764}, "G18133700300401010": {"name": "店集收费站入口广场", "lat": 36.57869696440406, "lng": 120.66154348941627}, "G18133700300402010": {"name": "店集收费站出口广场", "lat": 36.57878764200487, "lng": 120.66145093030087}, "G18153700100101010": {"name": "潍城西入口收费广场", "lat": 36.72215657988528, "lng": 118.95177560934178}, "G18153700100102020": {"name": "潍城西出口收费广场", "lat": 36.72241293249901, "lng": 118.95173750619765}, "G18153700100201010": {"name": "潍坊南入口收费广场", "lat": 36.6040269380763, "lng": 118.96795328436936}, "G18153700100202020": {"name": "潍坊南出口收费广场", "lat": 36.60390133449694, "lng": 118.96779363678132}, "G18153700100301010": {"name": "昌乐南入口收费广场", "lat": 36.48718799999999, "lng": 119.10965831779096}, "G18153700100302020": {"name": "昌乐南出口收费广场", "lat": 36.48723722115871, "lng": 119.10948479195773}, "G18153700100401010": {"name": "安丘南入口收费广场", "lat": 36.36200437595652, "lng": 119.17015316039972}, "G18153700100402020": {"name": "安丘南出口收费广场", "lat": 36.36198968584118, "lng": 119.1703493337292}, "G18153700100501010": {"name": "安丘官庄入口收费广场", "lat": 36.26406119829928, "lng": 119.18640689209144}, "G18153700100502020": {"name": "安丘官庄出口收费广场", "lat": 36.264066366809885, "lng": 119.18633119244878}, "G18153700100601010": {"name": "诸城石桥子入口收费广场", "lat": 36.1559591910994, "lng": 119.23739306707976}, "G18153700100602020": {"name": "诸城石桥子出口收费广场", "lat": 36.15596182658263, "lng": 119.2373573956992}, "G18153700100701010": {"name": "诸城龙都入口收费广场", "lat": 35.92682876018421, "lng": 119.276638139947}, "G18153700100702020": {"name": "诸城龙都出口收费广场", "lat": 35.92683803161212, "lng": 119.2767034658994}, "G18153700100801010": {"name": "五莲北入口收费广场", "lat": 35.808037891232274, "lng": 119.27561133536308}, "G18153700100802020": {"name": "五莲北出口收费广场", "lat": 35.80811462026746, "lng": 119.27562355740268}, "G18153700100901010": {"name": "五莲入口收费广场", "lat": 35.74350678228784, "lng": 119.28744984260877}, "G18153700100902020": {"name": "五莲出口收费广场", "lat": 35.743520123095124, "lng": 119.28727869126898}, "G18153700101001010": {"name": "街头入口收费广场", "lat": 35.58909054526758, "lng": 119.2915026589773}, "G18153700101002020": {"name": "街头出口收费广场", "lat": 35.58903430971655, "lng": 119.29147828158744}, "G18153700101101010": {"name": "陈疃北入口收费广场", "lat": 35.515752327483256, "lng": 119.29208234110448}, "G18153700101102020": {"name": "陈疃北出口收费广场", "lat": 35.51572146635286, "lng": 119.29220535570576}, "G20113700100101010": {"name": "青岛东入口收费广场", "lat": 36.137757179648645, "lng": 120.45347197281734}, "G20113700100102020": {"name": "青岛东出口收费广场", "lat": 36.13775103831075, "lng": 120.45313782429132}, "G20113700100201010": {"name": "李村入口收费广场", "lat": 36.16092283448391, "lng": 120.44692126831912}, "G20113700100202020": {"name": "李村出口收费广场", "lat": 36.16062620358575, "lng": 120.44695858092658}, "G20113700100301010": {"name": "夏庄入口收费广场", "lat": 36.2496254221094, "lng": 120.43179763257346}, "G20113700100302020": {"name": "夏庄出口收费广场", "lat": 36.249694962938335, "lng": 120.4321467631515}, "G20113700100401010": {"name": "流亭入口收费广场", "lat": 36.252388, "lng": 120.428522}, "G20113700100402020": {"name": "流亭出口收费广场", "lat": 36.252524, "lng": 120.428674}, "G20113700100501010": {"name": "城阳南入口收费广场", "lat": 36.290648, "lng": 120.43421899999996}, "G20113700100502020": {"name": "城阳南出口收费广场", "lat": 36.2904596178218, "lng": 120.43453897353426}, "G20113700100601010": {"name": "城阳北入口收费广场", "lat": 36.32492861786997, "lng": 120.42406349267262}, "G20113700100602020": {"name": "城阳北出口收费广场", "lat": 36.32482308875423, "lng": 120.42405917229976}, "G20113700200101010": {"name": "即墨西入口收费广场", "lat": 36.37661837547732, "lng": 120.38699498834322}, "G20113700200101020": {"name": "即墨西出口收费广场", "lat": 36.37665937547605, "lng": 120.38683720702676}, "G20113700200201010": {"name": "普东入口收费广场", "lat": 36.4651105099517, "lng": 120.30970627989404}, "G20113700200202020": {"name": "普东出口收费广场", "lat": 36.46511320060999, "lng": 120.30984540632916}, "G20113700200301010": {"name": "移风入口收费广场", "lat": 36.545276784501766, "lng": 120.203763279894}, "G20113700200302020": {"name": "移风出口收费广场", "lat": 36.54520420903799, "lng": 120.20363116039184}, "G20113700300101010": {"name": "郭庄入口收费广场", "lat": 36.60812578467712, "lng": 120.10177406121046}, "G20113700300102020": {"name": "郭庄出口收费广场", "lat": 36.60826936724592, "lng": 120.10173624746362}, "G20113700300201010": {"name": "平度南入口收费广场", "lat": 36.70786750521026, "lng": 119.95840313415954}, "G20113700300202020": {"name": "平度南出口收费广场", "lat": 36.70789861253982, "lng": 119.95855345235516}, "G20113700300301010": {"name": "张舍入口收费广场", "lat": 36.87199221856264, "lng": 119.73463020702684}, "G20113700300302020": {"name": "张舍出口收费广场", "lat": 36.87208020188254, "lng": 119.73472446017962}, "G20113700400101010": {"name": "明村收费站入口广场", "lat": 36.762333644642, "lng": 119.63650313415955}, "G20113700400102010": {"name": "明村收费站出口广场", "lat": 36.762220509726745, "lng": 119.63649508238127}, "G20113700400201010": {"name": "田庄收费站入口广场", "lat": 36.77737864451548, "lng": 119.75130513415957}, "G20113700400202010": {"name": "田庄收费站出口广场", "lat": 36.77750416873789, "lng": 119.75129464209586}, "G20113700400301010": {"name": "平度收费站辅站入口广场", "lat": 36.808634122963824, "lng": 119.89156513450054}, "G20113700400302010": {"name": "平度收费站辅站出口广场", "lat": 36.70786956600965, "lng": 119.95840910248305}, "G20113700400401010": {"name": "平度东收费站入口广场", "lat": 36.80157440650986, "lng": 120.0687985277354}, "G20113700400402010": {"name": "平度东收费站出口广场", "lat": 36.801475999998814, "lng": 120.0687730583749}, "G20113700400501010": {"name": "云山收费站入口广场", "lat": 36.83649757607223, "lng": 120.25553511957617}, "G20113700400502010": {"name": "云山收费站出口广场", "lat": 36.836377679260806, "lng": 120.2554870848872}, "G25163700100101010": {"name": "利津北收费站入口广场", "lat": 37.58025355080636, "lng": 118.26244224484184}, "G25163700100102010": {"name": "利津北收费站出口广场", "lat": 37.57992766331695, "lng": 118.2624287929331}, "G25163700100201010": {"name": "盐窝收费站入口广场", "lat": 37.630402398761404, "lng": 118.36438497384164}, "G25163700100202010": {"name": "盐窝收费站出口广场", "lat": 37.63050513543816, "lng": 118.3645579744648}, "G25163700200101010": {"name": "惠民西收费站入口广场", "lat": 37.22952014576349, "lng": 117.4424170496356}, "G25163700200102010": {"name": "惠民西收费站出口广场", "lat": 37.2292813304457, "lng": 117.4424296156126}, "G25163700200201010": {"name": "惠民收费站入口广场", "lat": 37.37120798423327, "lng": 117.57778783095202}, "G25163700200202010": {"name": "惠民收费站出口广场", "lat": 37.37136219140929, "lng": 117.57812135751875}, "G25163700200301010": {"name": "滨州西收费站入口广场", "lat": 37.415531278219646, "lng": 117.72039612242092}, "G25163700200302010": {"name": "滨州西收费站出口广场", "lat": 37.41552815845172, "lng": 117.72072460984036}, "G25163700200401010": {"name": "滨城北收费站入口广场", "lat": 37.50446768114794, "lng": 117.988207830952}, "G25163700200402010": {"name": "滨城北收费站出口广场", "lat": 37.50472589600436, "lng": 117.9883401243068}, "G25163700200501010": {"name": "滨州东收费站入口广场", "lat": 37.5103769786883, "lng": 118.07989912242095}, "G25163700200502010": {"name": "滨州东收费站出口广场", "lat": 37.51055487274557, "lng": 118.0798456786098}, "G25163700300101010": {"name": "济北开发区收费站入口广场", "lat": 37.03463899757051, "lng": 117.1695779766865}, "G25163700300102010": {"name": "济北开发区收费站出口广场", "lat": 37.03478704035263, "lng": 117.16926406573724}, "G25163700300201010": {"name": "济阳东收费站入口广场", "lat": 37.11466799440855, "lng": 117.271219851257}, "G25163700300202010": {"name": "济阳东收费站出口广场", "lat": 37.11440824254939, "lng": 117.2711528851504}, "G25163700400101010": {"name": "高唐西收费站入口广场", "lat": 36.89093457093858, "lng": 116.15452426831912}, "G25163700400102010": {"name": "高唐西收费站出口广场", "lat": 36.8907683016154, "lng": 116.15462105784351}, "G25163700400201010": {"name": "金郝庄收费站入口广场", "lat": 36.8774624366644, "lng": 115.9888464140536}, "G25163700400202010": {"name": "金郝庄收费站出口广场", "lat": 36.87731709286385, "lng": 115.9887905188117}, "G25163700400301010": {"name": "临清收费站入口广场", "lat": 36.877249436682334, "lng": 115.78404697668648}, "G25163700400302010": {"name": "临清收费站出口广场", "lat": 36.87743651914913, "lng": 115.7839784993712}, "G25163700400401010": {"name": "高邢鲁冀收费站入口广场", "lat": 36.885641, "lng": 115.701367}, "G25163700400402010": {"name": "高邢鲁冀收费站出口广场", "lat": 36.885641, "lng": 115.701367}, "G35113700200101010": {"name": "东明北入口收费广场", "lat": 35.3291083129717, "lng": 115.1136942683191}, "G35113700200102020": {"name": "东明北出口收费广场", "lat": 35.32902981092542, "lng": 115.11368919654043}, "G35113700200201010": {"name": "菏宝鲁豫收费站入口广场", "lat": 35.31444107602849, "lng": 114.87647823443638}, "G35113700200202020": {"name": "菏宝鲁豫收费站出口广场", "lat": 35.33120748871703, "lng": 115.0852622026567}, "S00013700100101010": {"name": "晏城收费站入口广场", "lat": 36.72504302601108, "lng": 116.723457314715}, "S00013700100102010": {"name": "晏城收费站出口广场", "lat": 36.7250056370663, "lng": 116.72329344089232}, "S00013700100201010": {"name": "齐河西收费站入口广场", "lat": 36.70499465724315, "lng": 116.64805656628442}, "S00013700100201020": {"name": "齐河西收费站入口广场", "lat": 36.7023502898336, "lng": 116.6496923747295}, "S00013700100202010": {"name": "齐河西收费站出口广场", "lat": 36.70490971737097, "lng": 116.64810948490955}, "S00013700100202020": {"name": "齐河西收费站出口广场", "lat": 36.7024464952477, "lng": 116.64963607805068}, "S00013700100301010": {"name": "齐河南收费站入口广场", "lat": 36.75348579955708, "lng": 116.77184435244892}, "S00013700100302010": {"name": "齐河南收费站出口广场", "lat": 36.75361731773167, "lng": 116.77175075821197}, "S00013700100404010": {"name": "潘店收费广场", "lat": 36.650836, "lng": 116.476562}, "S00013700200101010": {"name": "茌平收费站入口广场", "lat": 36.55292127621762, "lng": 116.261734135746}, "S00013700200102010": {"name": "茌平收费站出口广场", "lat": 36.5529979809513, "lng": 116.26197615606524}, "S00013700200201010": {"name": "聊城东收费站北岗入口广场", "lat": 36.49788308115954, "lng": 116.02776321386756}, "S00013700200201020": {"name": "聊城东收费站南岗入口广场", "lat": 36.49106438447868, "lng": 116.02828083259752}, "S00013700200202010": {"name": "聊城东收费站北岗出口广场", "lat": 36.49788532238205, "lng": 116.0281801927968}, "S00013700200202020": {"name": "聊城东收费站南岗出口广场", "lat": 36.49109457471597, "lng": 116.02786982185994}, "S00013700200301010": {"name": "聊城收费站北岗入口广场", "lat": 36.486247143005286, "lng": 115.9535422219912}, "S00013700200301020": {"name": "聊城收费站南岗入口广场", "lat": 36.48272479520894, "lng": 115.95720901519566}, "S00013700200302010": {"name": "聊城收费站北岗出口广场", "lat": 36.48624485350308, "lng": 115.95381970480308}, "S00013700200302020": {"name": "聊城收费站南岗出口广场", "lat": 36.48273020510314, "lng": 115.95692091393988}, "S00013700200601010": {"name": "冠县东收费站入口广场", "lat": 36.48976146472776, "lng": 115.66507440235584}, "S00013700200602010": {"name": "冠县东收费站出口广场", "lat": 36.48967670298066, "lng": 115.66521303239443}, "S00013700200701010": {"name": "冠县收费站入口广场", "lat": 36.519761047777095, "lng": 115.4793756035134}, "S00013700200702010": {"name": "冠县收费站出口广场", "lat": 36.51977348414866, "lng": 115.47910440519296}, "S00013700200801010": {"name": "冠县西收费站入口广场", "lat": 36.32623, "lng": 115.202178}, "S00013700200802010": {"name": "冠县西收费站出口广场", "lat": 36.32623, "lng": 115.202178}, "S00013700200901010": {"name": "聊城开发收费站北岗入口广场", "lat": 36.4987542086118, "lng": 116.08539460409158}, "S00013700200901020": {"name": "聊城开发收费站南岗入口广场", "lat": 36.4955747903758, "lng": 116.09132652453845}, "S00013700200902010": {"name": "聊城开发收费站北岗出口广场", "lat": 36.498800563152784, "lng": 116.08549010537344}, "S00013700200902020": {"name": "聊城开发收费站南岗出口广场", "lat": 36.495557898537314, "lng": 116.0912184724978}, "S00013700201001010": {"name": "茌平西收费站入口广场", "lat": 36.53849619844191, "lng": 116.21192313415956}, "S00013700201002010": {"name": "茌平西收费站出口广场", "lat": 36.53865429101667, "lng": 116.21199849292664}, "S00073700100101010": {"name": "锦绣川收费站入口广场", "lat": 36.501167, "lng": 117.109667}, "S00073700100102020": {"name": "锦绣川收费站出口广场", "lat": 36.501167, "lng": 117.109667}, "S00073700100201010": {"name": "柳埠东收费站入口广场", "lat": 36.426167, "lng": 117.138167}, "S00073700100202020": {"name": "柳埠东收费站出口广场", "lat": 36.426167, "lng": 117.138167}, "S00073700100301010": {"name": "泰山北收费站入口广场", "lat": 36.301167, "lng": 117.202}, "S00073700100302020": {"name": "泰山北收费站出口广场", "lat": 36.301167, "lng": 117.202}, "S00073700100401010": {"name": "泰山东收费站入口广场", "lat": 36.2525, "lng": 117.2575}, "S00073700100402020": {"name": "泰山东收费站出口广场", "lat": 36.2525, "lng": 117.2575}, "S00073700100501010": {"name": "邱家店收费站入口广场", "lat": 36.15, "lng": 117.274333}, "S00073700100502020": {"name": "邱家店收费站出口广场", "lat": 36.15, "lng": 117.274333}, "S00073700100601010": {"name": "徂徕北收费站入口广场", "lat": 36.106833, "lng": 117.3005}, "S00073700100602020": {"name": "徂徕北收费站出口广场", "lat": 36.106833, "lng": 117.3005}, "S00113700100101010": {"name": "烟台收费站入口广场", "lat": 37.4411148642252, "lng": 121.47261885021032}, "S00113700100101011": {"name": "烟台收费站入口广场", "lat": 37.4411148642252, "lng": 121.47261885021032}, "S00113700100102010": {"name": "烟台收费站出口广场", "lat": 37.441497735768905, "lng": 121.47294741237758}, "S00113700100102012": {"name": "烟台收费站出口广场", "lat": 37.441497735768905, "lng": 121.47294741237758}, "S00113700100201010": {"name": "烟台南收费站入口广场", "lat": 37.284111281958985, "lng": 121.44894509660988}, "S00113700100201013": {"name": "烟台南收费站入口广场", "lat": 37.28411382213858, "lng": 121.44895122006756}, "S00113700100202010": {"name": "烟台南收费站出口广场", "lat": 37.28408566560464, "lng": 121.44885183070032}, "S00113700100202014": {"name": "烟台南收费站出口广场", "lat": 37.28408566560464, "lng": 121.44885183070032}, "S00113700100301010": {"name": "牟平南收费站入口广场", "lat": 37.180504336743326, "lng": 121.419993550139}, "S00113700100301015": {"name": "牟平南收费站入口广场", "lat": 37.180494372793405, "lng": 121.4199849758968}, "S00113700100302010": {"name": "牟平南收费站出口广场", "lat": 37.18057161387304, "lng": 121.41996892914284}, "S00113700100302016": {"name": "牟平南收费站出口广场", "lat": 37.18057161387304, "lng": 121.41996892914284}, "S00113700100401010": {"name": "乳山北收费站入口广场", "lat": 37.01019928508872, "lng": 121.37602080467096}, "S00113700100401017": {"name": "乳山北收费站入口广场", "lat": 37.01019758350597, "lng": 121.37601404430582}, "S00113700100402010": {"name": "乳山北收费站出口广场", "lat": 37.01029612460954, "lng": 121.37606821024312}, "S00113700100402018": {"name": "乳山北收费站出口广场", "lat": 37.01029612460954, "lng": 121.37606821024312}, "S00113700100501010": {"name": "诸往收费站入口广场", "lat": 36.95757832149856, "lng": 121.36302406707978}, "S00113700100501019": {"name": "诸往收费站入口广场", "lat": 36.957578773912005, "lng": 121.3630210244653}, "S00113700100502010": {"name": "诸往收费站出口广场", "lat": 36.95751096052332, "lng": 121.36299258660154}, "S00113700100601010": {"name": "海阳北收费站入口广场", "lat": 36.88099417999069, "lng": 121.3063856035134}, "S00113700100602010": {"name": "海阳北收费站出口广场", "lat": 36.88098236860337, "lng": 121.30623460525818}, "S00113700100701010": {"name": "海阳东收费站入口广场", "lat": 36.76397621465748, "lng": 121.29401587504384}, "S00113700100702010": {"name": "海阳东收费站出口广场", "lat": 36.763980370635394, "lng": 121.293695533348}, "S00123700100101010": {"name": "无棣东收费站入口广场", "lat": 37.703152177744656, "lng": 117.7229497955382}, "S00123700100102010": {"name": "无棣东收费站出口广场", "lat": 37.7031248207327, "lng": 117.72318999312546}, "S00123700100201010": {"name": "阳信收费站入口广场", "lat": 37.6843519386626, "lng": 117.63735206121046}, "S00123700100202010": {"name": "阳信收费站出口广场", "lat": 37.68435599507244, "lng": 117.63717711447792}, "S00123700200101010": {"name": "庆云收费站入口广场", "lat": 37.70242848550369, "lng": 117.40982713415954}, "S00123700200102010": {"name": "庆云收费站出口广场", "lat": 37.70226227288859, "lng": 117.40990965980929}, "S00123700200201010": {"name": "乐陵收费站入口广场", "lat": 37.673009636906286, "lng": 117.174313915476}, "S00123700200202010": {"name": "乐陵收费站出口广场", "lat": 37.672790979082, "lng": 117.1742295952901}, "S00123700200301010": {"name": "宁津收费站入口广场", "lat": 37.568493937007005, "lng": 116.79498335276124}, "S00123700200302010": {"name": "宁津收费站出口广场", "lat": 37.56850672705217, "lng": 116.79514141043184}, "S00123700200401010": {"name": "德州东收费站入口广场", "lat": 37.47368849007589, "lng": 116.45219113415956}, "S00123700200402010": {"name": "德州东收费站出口广场", "lat": 37.4737119641601, "lng": 116.45198013621584}, "S00123700200501010": {"name": "德州北收费站主站入口广场", "lat": 37.50427839389829, "lng": 116.35259847889608}, "S00123700200501020": {"name": "德州北收费站辅站入口广场", "lat": 37.50763531929636, "lng": 116.35463997198676}, "S00123700200502010": {"name": "德州北收费站主站出口广场", "lat": 37.50439437602485, "lng": 116.3526988298799}, "S00123700200502020": {"name": "德州北收费站辅站出口广场", "lat": 37.50759405731584, "lng": 116.35482937317808}, "S00123700200601010": {"name": "德州西收费站入口广场", "lat": 37.516172036489294, "lng": 116.31720609738603}, "S00123700200602010": {"name": "德州西收费站出口广场", "lat": 37.51485371813672, "lng": 116.31699452467603}, "S00123700200701010": {"name": "景州主线收费站入口广场", "lat": 37.524695, "lng": 116.308034}, "S00123700200701030": {"name": "庙镇入口广场", "lat": 37.524695, "lng": 116.308034}, "S00123700200702020": {"name": "鲁冀主线收费站出口广场", "lat": 37.524695, "lng": 116.308034}, "S00123700200702040": {"name": "庙镇出口广场", "lat": 37.524695, "lng": 116.308034}, "S00123700200804010": {"name": "乐陵东收费广场", "lat": 37.684047, "lng": 117.261741}, "S00163700100101010": {"name": "武备收费站入口广场", "lat": 36.85364581350507, "lng": 120.33913786319104}, "S00163700100102010": {"name": "武备收费站出口广场", "lat": 36.8535570897469, "lng": 120.33907356415948}, "S00163700100201010": {"name": "莱西收费站入口广场", "lat": 36.91466873450726, "lng": 120.50246027404518}, "S00163700100202010": {"name": "莱西收费站出口广场", "lat": 36.91464722146357, "lng": 120.50236539753928}, "S00163700100301010": {"name": "周格庄收费站出口广场", "lat": 36.92849, "lng": 120.571082}, "S00163700100302010": {"name": "周格庄收费站入口广场", "lat": 36.928746, "lng": 120.571108}, "S00163700200101010": {"name": "坊子收费站入口广场", "lat": 36.61796812575943, "lng": 119.17697160832988}, "S00163700200102010": {"name": "坊子收费站出口广场", "lat": 36.61807069301784, "lng": 119.17696378230534}, "S00163700200201010": {"name": "朱里收费站入口广场", "lat": 36.74518792536753, "lng": 119.3995992070268}, "S00163700200202010": {"name": "朱里收费站出口广场", "lat": 36.74519237886895, "lng": 119.39943890572503}, "S00163700200301010": {"name": "石埠收费站入口广场", "lat": 36.750083078692754, "lng": 119.46971495112442}, "S00163700200302010": {"name": "石埠收费站出口广场", "lat": 36.75005696551317, "lng": 119.46989956569912}, "S00163700300101010": {"name": "泽头收费站入口广场", "lat": 37.064472, "lng": 121.582656}, "S00163700300102020": {"name": "泽头收费站出口广场", "lat": 37.064472, "lng": 121.582656}, "S00163700300201010": {"name": "下初收费站入口广场", "lat": 37.055482, "lng": 121.608704}, "S00163700300202020": {"name": "下初收费站出口广场", "lat": 37.055482, "lng": 121.608704}, "S00163700300301010": {"name": "午极收费站入口广场", "lat": 37.078362, "lng": 121.479715}, "S00163700300302020": {"name": "午极收费站出口广场", "lat": 37.078362, "lng": 121.479715}, "S00163700300401010": {"name": "崖子收费站入口广场", "lat": 37.086529, "lng": 121.285006}, "S00163700300402020": {"name": "崖子收费站出口广场", "lat": 37.086529, "lng": 121.285006}, "S00163700400101010": {"name": "郭城收费站入口广场", "lat": 36.998183, "lng": 121.087991}, "S00163700400102020": {"name": "郭城收费站出口广场", "lat": 36.998183, "lng": 121.087991}, "S00163700400201010": {"name": "发城收费站入口广场", "lat": 36.996014, "lng": 121.037997}, "S00163700400202020": {"name": "发城收费站出口广场", "lat": 36.996014, "lng": 121.037997}, "S00163700400301010": {"name": "万第收费站入口广场", "lat": 36.905827, "lng": 120.838343}, "S00163700400302020": {"name": "万第收费站出口广场", "lat": 36.905827, "lng": 120.838343}, "S00163700400401010": {"name": "古柳收费站入口广场", "lat": 36.882675, "lng": 120.708783}, "S00163700400402020": {"name": "古柳收费站出口广场", "lat": 36.882675, "lng": 120.708783}, "S00163700400501010": {"name": "吕格庄收费站入口广场", "lat": 36.901076, "lng": 120.649653}, "S00163700400502020": {"name": "吕格庄收费站出口广场", "lat": 36.901076, "lng": 120.649653}, "S00163700400601010": {"name": "冯格庄收费站入口广场", "lat": 36.927752, "lng": 120.583748}, "S00163700400602020": {"name": "冯格庄收费站出口广场", "lat": 36.927752, "lng": 120.583748}, "S00163700500101010": {"name": "坊子西入口收费广场", "lat": 36.585878, "lng": 119.106688}, "S00163700500102010": {"name": "坊子西出口收费广场", "lat": 36.585343, "lng": 119.106771}, "S00163700500201010": {"name": "坊子入口收费广场", "lat": 36.618228, "lng": 119.148693}, "S00163700500202010": {"name": "坊子出口收费广场", "lat": 36.618516, "lng": 119.148126}, "S00173700100101010": {"name": "蓬莱收费站入口广场", "lat": 37.75453071027201, "lng": 120.87058526703832}, "S00173700100102010": {"name": "蓬莱收费站出口广场", "lat": 37.75457867452239, "lng": 120.8712497194562}, "S00173700100201010": {"name": "大辛店收费站入口广场", "lat": 37.57999727540758, "lng": 120.90051026831912}, "S00173700100202010": {"name": "大辛店收费站出口广场", "lat": 37.57992015898365, "lng": 120.90043349537086}, "S00193700100101010": {"name": "莱西东收费广场", "lat": 36.89654771900145, "lng": 120.59140512242098}, "S00193700100102010": {"name": "莱西东收费广场", "lat": 36.89640092674718, "lng": 120.59120082607993}, "S00193700100201010": {"name": "团旺收费广场", "lat": 36.75884999999998, "lng": 120.55445026823736}, "S00193700100202010": {"name": "团旺收费广场", "lat": 36.75885686859861, "lng": 120.55456771617052}, "S00193700100301010": {"name": "姜山收费广场", "lat": 36.63862750656541, "lng": 120.52171027989404}, "S00193700100302010": {"name": "姜山收费广场", "lat": 36.63862489947577, "lng": 120.5218890506556}, "S00193700100401010": {"name": "华山东收费广场", "lat": 36.54383192255453, "lng": 120.56144535276124}, "S00193700100402010": {"name": "华山东收费广场", "lat": 36.54386196685884, "lng": 120.56125632631218}, "S00193700100501010": {"name": "龙泉收费广场", "lat": 36.45879837296504, "lng": 120.559053279894}, "S00193700100502010": {"name": "龙泉收费广场", "lat": 36.458957584762, "lng": 120.55914325905243}, "S00193700100601010": {"name": "即墨东收费广场", "lat": 36.40313323820962, "lng": 120.55088713415957}, "S00193700100602010": {"name": "即墨东收费广场", "lat": 36.40307507226103, "lng": 120.55066879487984}, "S00193700100701010": {"name": "惜福收费广场", "lat": 36.33068291959125, "lng": 120.519393279894}, "S00193700100702010": {"name": "惜福收费广场", "lat": 36.33080701281425, "lng": 120.51940046009538}, "S00193700100801010": {"name": "城阳收费广场", "lat": 36.28184014152852, "lng": 120.4211080487845}, "S00193700100802010": {"name": "城阳收费广场", "lat": 36.2822028364884, "lng": 120.42081445946457}, "S00193700400101010": {"name": "S19玲珑入口收费广场", "lat": 37.4080489174885, "lng": 120.4546366093418}, "S00193700400102020": {"name": "S19玲珑出口收费广场", "lat": 37.408042318254886, "lng": 120.45477213311052}, "S00193700400201010": {"name": "S19招远东入口收费广场", "lat": 37.34911582876127, "lng": 120.48096676985456}, "S00193700400202020": {"name": "S19招远东出口收费广场", "lat": 37.34917440119037, "lng": 120.48100385522147}, "S00193700400301010": {"name": "S19毕郭入口收费广场", "lat": 37.225009938043286, "lng": 120.51961494969336}, "S00193700400302020": {"name": "S19毕郭出口收费广场", "lat": 37.225000016770736, "lng": 120.5195542967253}, "S00193700400401010": {"name": "S19马连庄入口收费广场", "lat": 37.07783999545045, "lng": 120.51862110529726}, "S00193700400402020": {"name": "S19马连庄出口收费广场", "lat": 37.07789542387708, "lng": 120.51861938864532}, "S00233700100101010": {"name": "潍日滨海收费站入口广场", "lat": 37.0145151134204, "lng": 119.08077474016162}, "S00233700100102010": {"name": "潍日滨海收费站出口广场", "lat": 37.01443338738548, "lng": 119.08124161009977}, "S00233700100201010": {"name": "潍日潍城收费站入口广场", "lat": 36.79469628509267, "lng": 118.97484280027632}, "S00233700100202010": {"name": "潍日潍城收费站出口广场", "lat": 36.79490580474925, "lng": 118.97451930338602}, "S00263700100101010": {"name": "莱泰杨庄收费站入口广场", "lat": 36.22310804155372, "lng": 117.44698391750272}, "S00263700100102010": {"name": "莱泰杨庄收费站出口广场", "lat": 36.223136497872304, "lng": 117.44720875890376}, "S00263700100201010": {"name": "莱芜西收费站入口广场", "lat": 36.19902996976504, "lng": 117.59730797668644}, "S00263700100202010": {"name": "莱芜西收费站出口广场", "lat": 36.198873116625634, "lng": 117.59732046282508}, "S00263700200101010": {"name": "莱泰泰安收费站入口广场", "lat": 36.189146309208965, "lng": 117.21740860715512}, "S00263700200102010": {"name": "莱泰泰安收费站出口广场", "lat": 36.18932543123482, "lng": 117.21746620131913}, "S00263700200201010": {"name": "范镇收费站入口广场", "lat": 36.21067091193484, "lng": 117.39954038460584}, "S00263700200201020": {"name": "范镇收费站入口广场", "lat": 36.20876952349781, "lng": 117.39876710856416}, "S00263700200202010": {"name": "范镇收费站出口广场", "lat": 36.21071891290812, "lng": 117.39952526064248}, "S00263700200202020": {"name": "范镇收费站出口广场", "lat": 36.20866704517447, "lng": 117.3988260717168}, "S00283700100101010": {"name": "张寨北入口收费广场", "lat": 36.083116153116535, "lng": 115.50631269611723}, "S00283700100102020": {"name": "张寨北出口收费广场", "lat": 36.08317855120268, "lng": 115.5063304706994}, "S00283700100201010": {"name": "莘南鲁豫入口收费广场", "lat": 36.058423, "lng": 115.376862}, "S00283700100202020": {"name": "莘南鲁豫出口收费广场", "lat": 36.081087, "lng": 115.480427}, "S00293700100101010": {"name": "高青北收费站入口广场", "lat": 37.24444899982814, "lng": 117.96606646121342}, "S00293700100102010": {"name": "高青北收费站出口广场", "lat": 37.24437737881992, "lng": 117.96629820076096}, "S00293700100201010": {"name": "高青收费站入口广场", "lat": 37.185698931567785, "lng": 117.97333698834322}, "S00293700100202010": {"name": "高青收费站出口广场", "lat": 37.18569753758938, "lng": 117.97312515026628}, "S00293700100301010": {"name": "桓台收费站入口广场", "lat": 36.95448978564802, "lng": 117.968360279894}, "S00293700100302010": {"name": "桓台收费站出口广场", "lat": 36.954556037742606, "lng": 117.96861889663307}, "S00293700100401010": {"name": "淄博新区入口收费广场", "lat": 36.78330313320615, "lng": 117.95470432944788}, "S00293700100402010": {"name": "淄博新区出口收费广场", "lat": 36.783290470637, "lng": 117.95508713257182}, "S00293700100501010": {"name": "淄川收费站入口广场", "lat": 36.661595569652974, "lng": 117.88204426831908}, "S00293700100502010": {"name": "淄川收费站出口广场", "lat": 36.661452086439255, "lng": 117.8817611021481}, "S00293700100601010": {"name": "博山收费站入口广场", "lat": 36.507063514356574, "lng": 117.82737879277094}, "S00293700100602010": {"name": "博山收费站出口广场", "lat": 36.50707634323456, "lng": 117.82729555794565}, "S00293700100701010": {"name": "淄博西入口收费广场", "lat": 36.84432670836695, "lng": 117.94908896073903}, "S00293700100702020": {"name": "淄博西出口收费广场", "lat": 36.84458976036511, "lng": 117.94935112202865}, "S00293700100801010": {"name": "文昌湖入口收费广场", "lat": 36.7294340030661, "lng": 117.92993112097126}, "S00293700100802020": {"name": "文昌湖出口收费广场", "lat": 36.72943134370863, "lng": 117.9296922864574}, "S00293700100901010": {"name": "博山北入口收费广场", "lat": 36.57778050775444, "lng": 117.85359098834324}, "S00293700100902020": {"name": "博山北出口收费广场", "lat": 36.57773471926606, "lng": 117.85362345105736}, "S00293700101004010": {"name": "桓台北收费广场", "lat": 37.014609, "lng": 117.967109}, "S00293700400101010": {"name": "平邑北收费站入口广场", "lat": 35.658386, "lng": 117.728007}, "S00293700400102010": {"name": "平邑北收费站出口广场", "lat": 35.659201, "lng": 117.729041}, "S00293700400201010": {"name": "蒙山收费站入口广场", "lat": 35.509381, "lng": 117.780892}, "S00293700400202010": {"name": "蒙山收费站出口广场", "lat": 35.608731, "lng": 117.790732}, "S00293700400301010": {"name": "平邑南收费站入口广场", "lat": 35.305535, "lng": 117.634479}, "S00293700400302010": {"name": "平邑南收费站出口广场", "lat": 35.308047, "lng": 117.631518}, "S00293700400401010": {"name": "白彦收费站入口广场", "lat": 35.229215, "lng": 117.581504}, "S00293700400402010": {"name": "白彦收费站出口广场", "lat": 35.228958, "lng": 117.582497}, "S00293700500101010": {"name": "山亭东收费站入口广场", "lat": 35.083276, "lng": 117.53663}, "S00293700500102010": {"name": "山亭东收费站出口广场", "lat": 35.083495, "lng": 117.537606}, "S00293700500201010": {"name": "枣庄东收费站入口广场", "lat": 34.889643, "lng": 117.603721},